[
  {
    "id": "ChIJHx8m28DGhkcRZEEYtEVO5uY",
    "name": "Autoscuola Casati",
    "lat": 45.477424899999995,
    "lng": 9.2062797
  },
  {
    "id": "ChIJnU1_t4iNhkcRUfGln0FmlPY",
    "name": "Autoscuola Sempione Ag. Aci Mi 128",
    "lat": 45.6002684,
    "lng": 8.9180124
  },
  {
    "id": "ChIJJ94GVO7GhkcR-c--ZL1h2hc",
    "name": "Autoscuola Gran Sasso",
    "lat": 45.4812282,
    "lng": 9.2215642
  },
  {
    "id": "ChIJu-q1iPtJ5xIRZ4WBt3kIOvM",
    "name": "L'Autoscuola.Net SRL",
    "lat": 39.301614199999996,
    "lng": 9.0939785
  },
  {
    "id": "ChIJBWdbOQtiLxMRpOeLtE8ot6E",
    "name": "I Tribuni Autoscuola",
    "lat": 41.8645974,
    "lng": 12.5519699
  },
  {
    "id": "ChIJFSqERB7bfkcRoOfOznsxyME",
    "name": "Autoscuola Accademia",
    "lat": 45.3943581,
    "lng": 11.901847199999999
  },
  {
    "id": "ChIJg6RVL5-RhkcRjRZa3NHYeME",
    "name": "Autoscuola Italia di Fontolan Gianluca",
    "lat": 45.642077199999996,
    "lng": 9.002315099999999
  },
  {
    "id": "ChIJDylKSMrHhkcRWCxrBr_kbog",
    "name": "Autoscuola VOLTAMONTI",
    "lat": 45.4965275,
    "lng": 9.2036219
  },
  {
    "id": "ChIJ415E6AvEhkcRAgXsaQM2xa0",
    "name": "Autoscuola 2000",
    "lat": 45.4359712,
    "lng": 9.183722099999999
  },
  {
    "id": "ChIJU53pTEzUeEcRv_6QkzTdlEo",
    "name": "Autoscuola Motor",
    "lat": 45.649187000000005,
    "lng": 11.787799999999999
  },
  {
    "id": "ChIJu1KcAvq8hkcR9bag_Z3c92M",
    "name": "Autoscuola Italia",
    "lat": 45.651638999999996,
    "lng": 9.208586
  },
  {
    "id": "ChIJSSQEQ6rchkcRl51EAVkMIWA",
    "name": "Autoscuola 2000",
    "lat": 45.3817807,
    "lng": 9.1554497
  },
  {
    "id": "ChIJf-UicVBziEcRKmIbkaAVdTU",
    "name": "Autoscuola Stella",
    "lat": 45.0327425,
    "lng": 7.7904865
  },
  {
    "id": "ChIJS1YkYDqchkcRohN7A0Oh15U",
    "name": "Autoscuola Pedalà - Como",
    "lat": 45.798465,
    "lng": 9.0895438
  },
  {
    "id": "ChIJrzidS4uYhkcR_1TC657NBEM",
    "name": "Autoscuola Pedalà Vighizzolo Cantù",
    "lat": 45.731364,
    "lng": 9.1527669
  },
  {
    "id": "ChIJfXGXmPWKJRMR0nip69vMYpg",
    "name": "Autoscuole Patente Web Delegazione Aci Affiliata Ready2go",
    "lat": 41.8464935,
    "lng": 12.4825289
  },
  {
    "id": "ChIJ0WwEe3ZiLxMR0maGybyQufs",
    "name": "Autoscuola Trebbi Dei Consoli",
    "lat": 41.8624595,
    "lng": 12.5590507
  },
  {
    "id": "ChIJP988yk6PJRMR-eRCyzyfe9E",
    "name": "University",
    "lat": 41.7737321,
    "lng": 12.6049591
  },
  {
    "id": "ChIJX2_on7SdhkcRHbOFPS1EWao",
    "name": "Autoscuola Natta",
    "lat": 45.808729500000005,
    "lng": 9.083436500000001
  },
  {
    "id": "ChIJIwgXma7-fUcRey-HX8WiuZA",
    "name": "Autoscuola Belfiore",
    "lat": 44.4158275,
    "lng": 12.1854011
  },
  {
    "id": "ChIJs3FwWrvHhkcRDaM8BsqfrLg",
    "name": "AUTOSCUOLA L'ISTRUTTORE",
    "lat": 45.4538879,
    "lng": 9.217957300000002
  },
  {
    "id": "ChIJ3620YrCihkcRlZaxHwv8bvM",
    "name": "Autoscuola Pedalà Mariano Comense",
    "lat": 45.6970727,
    "lng": 9.1789538
  },
  {
    "id": "ChIJM-eQKonqhkcRLUxCK47yHx4",
    "name": "Autoscuola Pero S.a.s",
    "lat": 45.508623799999995,
    "lng": 9.090234599999999
  },
  {
    "id": "ChIJafq8KurDhkcRZc9JC6mCIvU",
    "name": "BRUM Milano - Autoscuola",
    "lat": 45.444192199999996,
    "lng": 9.164527099999999
  },
  {
    "id": "ChIJOdZ0t0Z2gUcR1fJruVz48VI",
    "name": "Autoscuola Vallecamonica",
    "lat": 45.5464258,
    "lng": 10.2202825
  },
  {
    "id": "ChIJFfwacUeJJRMRqIwBRXY8vT8",
    "name": "Rinnovo Patenti 65 € - Roma Tuscolana Cinecittà",
    "lat": 41.8580754,
    "lng": 12.5605008
  },
  {
    "id": "ChIJ4wpQgF_xJRMRfi6UR-dN3ww",
    "name": "Autoscuola Patenteweb.2 - Rinnovo patente €69+ spedizione Iscrizione patente €130 - Acilia Dragona Dragoncello",
    "lat": 41.787419500000006,
    "lng": 12.3470591
  },
  {
    "id": "ChIJFV-a2bVfLxMRkSPjRQvFBSc",
    "name": "Autoscuola Patenteweb.7 - Rinnovo patente €69 + spedizione- Iscrizione patente €130.00 Boccea Battistini Aurelia",
    "lat": 41.9053361,
    "lng": 12.4190285
  },
  {
    "id": "ChIJBb3-cZLVeEcRBTiYrYOTkYU",
    "name": "Autoscuola Motor Tombolo",
    "lat": 45.6484616,
    "lng": 11.8282565
  },
  {
    "id": "ChIJNc8Jppx9LxMRJSgjBbG9JuA",
    "name": "Autoscuola Patenteweb.3 - Rinnovo patente €69 +spedizione- Iscrizione patente €130-Roma Vermicino, Borghesiana, Frascati.",
    "lat": 41.8581894,
    "lng": 12.672927099999999
  },
  {
    "id": "ChIJcdVCmeDHhkcRVZayq5YsWQ0",
    "name": "RINNOVO PATENTE",
    "lat": 45.4719969,
    "lng": 9.2064729
  },
  {
    "id": "ChIJG1RxCVBhLxMRh4GxZCEkhT8",
    "name": "Autoscuola Patenteweb.5 - Rinnovo patente €69 + spedizione- Iscrizione patente €130-Roma Nord Trieste Salaria Nomentana",
    "lat": 41.933478799999996,
    "lng": 12.5197591
  },
  {
    "id": "ChIJGxmoH5SJJRMRrFFn92WN8ww",
    "name": "Autoscuola PatenteWeb.6 Rinnovo patente €69 +spedizione - Iscrizione patenti€130.Cinecitta' Don Bosco Appia Tuscolana",
    "lat": 41.8579217,
    "lng": 12.5629944
  },
  {
    "id": "ChIJI1HeHFj5fUcRXkL-ewwZBpU",
    "name": "Autoscuola Mameli",
    "lat": 44.4190784,
    "lng": 12.205471
  },
  {
    "id": "ChIJPeQFd8Arf0cRYRjUO1PH9b0",
    "name": "Autoscuola Motor",
    "lat": 45.587724099999996,
    "lng": 11.807065099999999
  },
  {
    "id": "ChIJxyoDJvLDhkcRssDe-I1srQ8",
    "name": "Rinnovo Patenti Giambellino",
    "lat": 45.4504614,
    "lng": 9.148519
  },
  {
    "id": "ChIJYYorV13afkcRoG4fcPuRAJQ",
    "name": "Rinnovo Patente Padova",
    "lat": 45.4163332,
    "lng": 11.880745099999999
  },
  {
    "id": "ChIJw8zJoWXFhkcRJWJKZkw4kNs",
    "name": "Neith by Guida e Vai",
    "lat": 45.388784799999996,
    "lng": 9.1700274
  },
  {
    "id": "ChIJU3BktsGLhkcRIkMO_vBtyFg",
    "name": "Autoscuola Italiano Busto Arsizio",
    "lat": 45.608886999999996,
    "lng": 8.8469459
  },
  {
    "id": "ChIJx-wzCWNshEcRM289FHT1Lv0",
    "name": "Scuola Guida Spluga",
    "lat": 46.1687711,
    "lng": 9.429314800000002
  },
  {
    "id": "ChIJMw0sKabAhkcRdnWPDGkngbc",
    "name": "Autoscuola Pratiche Auto",
    "lat": 45.5309214,
    "lng": 9.1932595
  },
  {
    "id": "ChIJ-ya2LQrfg0cRnqfHf8yyBxw",
    "name": "Autoscuola Tonale Scuola Nautica Snc Di Manella F. E Pegurri F.",
    "lat": 45.788224,
    "lng": 9.998835999999999
  },
  {
    "id": "ChIJnX4CNymVhkcRX2ovUN6JTUo",
    "name": "Agenzia Pratiche - Autoscuola Itala",
    "lat": 45.5492525,
    "lng": 9.0765645
  },
  {
    "id": "ChIJ5-gwyT_rhkcRilYlS7NUKI4",
    "name": "Autoscuola La Rhodense",
    "lat": 45.527712199999996,
    "lng": 9.0435517
  },
  {
    "id": "ChIJT0_BaPw65xIRewSjqJzlEuY",
    "name": "L' Autoscuola Plinio",
    "lat": 39.1748963,
    "lng": 8.9731016
  },
  {
    "id": "ChIJdU3bCTcTiEcRuEpNOksvKbQ",
    "name": "Autoscuola Diesel",
    "lat": 45.03675440000001,
    "lng": 7.625854200000001
  },
  {
    "id": "ChIJXR7N_CpJ5xIRZusEcXsysVc",
    "name": "Consorzio L'Autoscuola.net",
    "lat": 39.305779699999995,
    "lng": 9.083671899999999
  },
  {
    "id": "ChIJSXVaCfNhLxMRP3c6XToxQOQ",
    "name": "Autoscuole Roma",
    "lat": 41.8821489,
    "lng": 12.522232299999999
  },
  {
    "id": "ChIJV5Xyw542eUcRoqRC6crC6V0",
    "name": "Autoscuola Quinto snc",
    "lat": 45.639733,
    "lng": 12.162656
  },
  {
    "id": "ChIJvWnA7OYweUcRITiaUK4C6pA",
    "name": "Autoscuola Diesel",
    "lat": 45.684453999999995,
    "lng": 12.124379099999999
  },
  {
    "id": "ChIJrRB2mkfrhkcRxldDZNPm0QM",
    "name": "Autoscuola Europa",
    "lat": 45.5345988,
    "lng": 9.042400299999999
  },
  {
    "id": "ChIJLSHWANZhLxMRfBgvx_2ixm8",
    "name": "Consorzio Autoscuole Romane",
    "lat": 41.8683224,
    "lng": 12.4898175
  },
  {
    "id": "ChIJexGz5xcm5xIRhyXyLzOtU1U",
    "name": "L'Autoscuola Formula 1",
    "lat": 39.0356966,
    "lng": 9.000721799999999
  },
  {
    "id": "ChIJq6q6upk2eUcR1hjL4Tgz_bc",
    "name": "Agenzia Quinto Pratiche Auto",
    "lat": 45.643528599999996,
    "lng": 12.164439199999999
  },
  {
    "id": "ChIJ3wHoe98qfkcRkpoXCIVwC30",
    "name": "Driving School Drive System",
    "lat": 44.4680088,
    "lng": 11.376157899999999
  },
  {
    "id": "ChIJw2HaFwWvHBMRTod9wDPb06U",
    "name": "Autoscuola Pantelleria",
    "lat": 36.8300626,
    "lng": 11.945043700000001
  },
  {
    "id": "ChIJz232rqzLAhMRT4gFzPndVQ4",
    "name": "Auto école Tarek Sayed",
    "lat": 36.779938699999995,
    "lng": 10.988872299999999
  },
  {
    "id": "ChIJQ2yX6SDvGRMREW3_wcRgncQ",
    "name": "Autoscuola Elena",
    "lat": 38.1266496,
    "lng": 13.3198504
  },
  {
    "id": "ChIJf0yBo6LlGRMR2ABJV5cNvXI",
    "name": "Autoscuola Gambino di Giulio Gambino",
    "lat": 38.0904277,
    "lng": 13.362556399999999
  },
  {
    "id": "ChIJl6sxHqroGRMREjbGGSnMaf8",
    "name": "Autoscuola Elena",
    "lat": 38.142058399999996,
    "lng": 13.353882800000001
  },
  {
    "id": "ChIJF05FCMvoGRMRqn-Jwa0cWYU",
    "name": "Autoscuola Roma",
    "lat": 38.143997899999995,
    "lng": 13.3318581
  },
  {
    "id": "ChIJ06kJTUfvGRMR6WpzcwBzM8g",
    "name": "Autoscuola Faulisi",
    "lat": 38.1254531,
    "lng": 13.3365782
  },
  {
    "id": "ChIJAwoACEnvGRMRCuKti1cUyQs",
    "name": "Autoscuola Valentino",
    "lat": 38.1386355,
    "lng": 13.3356601
  },
  {
    "id": "ChIJTShGDhXvGRMRD1sczs7gU6c",
    "name": "Autoscuola Giordano Roberto Di Giordano Massimiliano",
    "lat": 38.1189193,
    "lng": 13.334836
  },
  {
    "id": "ChIJ285t98XoGRMRnsRzOtymXnE",
    "name": "Autoscuola Ed.En",
    "lat": 38.152448,
    "lng": 13.328920499999999
  },
  {
    "id": "ChIJwWrsSYbvGRMRLFyukrCmNR4",
    "name": "Autoscuola Loria di Loria Gianluca",
    "lat": 38.0882076,
    "lng": 13.355396899999999
  },
  {
    "id": "ChIJwdlggjJiGRMRvcg_hWWWewU",
    "name": "AUTOSCUOLA TIZIANA",
    "lat": 38.0195534,
    "lng": 12.5413468
  },
  {
    "id": "ChIJsdm-1bGNGRMRoa06H7cJcSA",
    "name": "Autoscuola Liberia Giorlando",
    "lat": 38.048975399999996,
    "lng": 13.1160968
  },
  {
    "id": "ChIJSb7YA6j8GRMRSIcfDDQo9Zs",
    "name": "Autoscuola Nave",
    "lat": 38.0344848,
    "lng": 13.4514623
  },
  {
    "id": "ChIJWfUSH1jvGRMRh5UFCjajjaI",
    "name": "AUTOSCUOLA DANIELA di Di Benedetto Maurizio",
    "lat": 38.127926099999996,
    "lng": 13.3574164
  },
  {
    "id": "ChIJi8HVP_zuGRMRxFoMPMvBpBE",
    "name": "Autoscuola Boccadifalco di Rosario Allegra",
    "lat": 38.1090026,
    "lng": 13.308205599999999
  },
  {
    "id": "ChIJE_lEX8PoGRMRUvtdS2QTJKU",
    "name": "Autoscuola Faulisi",
    "lat": 38.1578248,
    "lng": 13.324991899999999
  },
  {
    "id": "ChIJB-ub2fDvGRMRUhtJqYSBsKU",
    "name": "Autoscuola Cerasola",
    "lat": 38.126401099999995,
    "lng": 13.3403694
  },
  {
    "id": "ChIJ_Tk0Ns_pGRMRC0ZzQ6w81jk",
    "name": "Autoscuola Giorlando",
    "lat": 38.1765373,
    "lng": 13.310405699999999
  },
  {
    "id": "ChIJK9cb-A3vGRMR0tiF1NY1hi0",
    "name": "Autoscuola P3 di Rosario Allegra",
    "lat": 38.110399199999996,
    "lng": 13.3305502
  },
  {
    "id": "ChIJFfRbtAfpGRMRnT46SpGgBFc",
    "name": "Autoscuola Vassallo snc Di Vassallo Claudio e Sabrina",
    "lat": 38.1894347,
    "lng": 13.285918
  },
  {
    "id": "ChIJT9-mx2LvGRMRKxwtBt-UtmE",
    "name": "Autoscuola Gambino Di Gambino Andrea",
    "lat": 38.108230999999996,
    "lng": 13.3573104
  },
  {
    "id": "ChIJ25ck04vkGRMRTqqfuaVQZoQ",
    "name": "Autoscuola Pomara",
    "lat": 38.0855499,
    "lng": 13.4333072
  },
  {
    "id": "ChIJ6a-4l3zvGRMRmEfzssWB0H4",
    "name": "Autoscuola Jolly",
    "lat": 38.106609899999995,
    "lng": 13.353709400000001
  },
  {
    "id": "ChIJO-BpsM_lGRMR6mwqK2eExMU",
    "name": "Autoscuola Oreto",
    "lat": 38.1061525,
    "lng": 13.3677675
  },
  {
    "id": "ChIJPWZSbbJ8GRMR6xYkvNNswUc",
    "name": "AUTOSCUOLA L'AURORA",
    "lat": 38.0430111,
    "lng": 12.6259131
  },
  {
    "id": "ChIJZTbi7VHvGRMRBIt6sCrahoc",
    "name": "Autoscuola Troisi",
    "lat": 38.1336964,
    "lng": 13.3480051
  },
  {
    "id": "ChIJ_05tyFfiGRMR82r3dzSHp5Y",
    "name": "Autoscuola Giordano",
    "lat": 38.0807607,
    "lng": 13.5065665
  },
  {
    "id": "ChIJn8zy8kvvGRMRK7gkKhM1ghI",
    "name": "Autoscuola Faulisi",
    "lat": 38.1363054,
    "lng": 13.341080100000001
  },
  {
    "id": "ChIJ5ZlxH0zvGRMRBcaRWYeCVdE",
    "name": "Autoscuola Scatassi Concetta",
    "lat": 38.135234499999996,
    "lng": 13.342829199999999
  },
  {
    "id": "ChIJ07eMoZzlGRMRMK9hwjsxncY",
    "name": "Autoscuola Gambino Di Gambino Roberto",
    "lat": 38.100429399999996,
    "lng": 13.371824
  },
  {
    "id": "ChIJNfXhR53kGRMRJc0KsVv9_vo",
    "name": "Autoscuola Enzo Di Senettone Dott.Ssa Valentina & C. S A S",
    "lat": 38.0752434,
    "lng": 13.449719499999999
  },
  {
    "id": "ChIJf0qC03jlGRMRthCNeM3dbdo",
    "name": "Autoscuola Li Greci ALICE",
    "lat": 38.0936799,
    "lng": 13.3648636
  },
  {
    "id": "ChIJwx0HgVDjGRMR3EcNjhOVMH4",
    "name": "Autoscuola Agenzia Caminiti",
    "lat": 38.0833845,
    "lng": 13.503362000000001
  },
  {
    "id": "ChIJ45GcIt43GhMR0I5mEmN5gCU",
    "name": "Autoscuola Sicilia",
    "lat": 37.6026096,
    "lng": 12.9665831
  },
  {
    "id": "ChIJTW3oa7ToGRMR7WhB8Sy6BD4",
    "name": "Autoscuola Li Greci",
    "lat": 38.144115299999996,
    "lng": 13.3402236
  },
  {
    "id": "ChIJc7zqtrnsGRMRuub4UJNfpVQ",
    "name": "Autoscuola Cinzia II snc di Badalamenti Pietro",
    "lat": 38.1402852,
    "lng": 13.1875199
  },
  {
    "id": "ChIJlzOi7L_vGRMRYxn1kYp9yHk",
    "name": "Autoscuola Faulisi",
    "lat": 38.1302192,
    "lng": 13.3365971
  },
  {
    "id": "ChIJP_3pNN9jGRMRG6N1cSavL7Y",
    "name": "Autoscuola Canzoneri",
    "lat": 38.0189735,
    "lng": 12.544280899999999
  },
  {
    "id": "ChIJC212RqdjGRMREQKD29pzyHw",
    "name": "Autoscuola Ready Go di Alberto Puma - Casa Santa Erice (Trapani))",
    "lat": 38.017041299999995,
    "lng": 12.5510881
  },
  {
    "id": "ChIJf_7uTGbvGRMR1yLjKz_s6vI",
    "name": "Autoscuola A.B.G",
    "lat": 38.116027599999995,
    "lng": 13.349062600000002
  },
  {
    "id": "ChIJFZyfepjiGRMRfYkMdLtzWNw",
    "name": "Autoscuola Italia 2",
    "lat": 38.0562755,
    "lng": 13.534334
  },
  {
    "id": "ChIJR1Xk78LoGRMRD0nX1sQnXvM",
    "name": "Autoscuola Settebello - Palermo",
    "lat": 38.160936899999996,
    "lng": 13.326022499999999
  },
  {
    "id": "ChIJ43JjwVPvGRMRw8v-AkoiVIM",
    "name": "Autoscuola Carollo",
    "lat": 38.1350331,
    "lng": 13.3512442
  },
  {
    "id": "ChIJTQDW9fjiGRMRO_RvpR16mqQ",
    "name": "Autoscuola Clemente",
    "lat": 38.078115,
    "lng": 13.505942
  },
  {
    "id": "ChIJq02n4yx3GhMRQCcx5PQu7z0",
    "name": "Autoscuola Driver S.A.S. di Manno Marinella & Vizzì F.",
    "lat": 37.4000754,
    "lng": 13.5318992
  },
  {
    "id": "ChIJxTx9Bb3iGRMRWo6ilDnAj3c",
    "name": "Autoscuola Esperia Di Varisco Giuseppe & C. S.N.C.",
    "lat": 38.054410000000004,
    "lng": 13.530757999999999
  },
  {
    "id": "ChIJ1yt7NeTHGxMRGuyrAxEIX9g",
    "name": "Autoscuola \"G. Carducci\" Scuola Nautica",
    "lat": 37.6582369,
    "lng": 12.5851708
  },
  {
    "id": "ChIJg7ibeWTlGRMRq1eKC82v3nw",
    "name": "Autoscuola Loria di Loria Francesco",
    "lat": 38.0825447,
    "lng": 13.3647818
  },
  {
    "id": "ChIJ_WGnM5THGxMRALdpMYwZsRQ",
    "name": "Autoscuola San Cristofaro",
    "lat": 37.6579043,
    "lng": 12.5939301
  },
  {
    "id": "ChIJr47luowzGhMRtgwH0yEbwKE",
    "name": "Autoscuola Nastasi",
    "lat": 37.7264094,
    "lng": 12.887548299999999
  },
  {
    "id": "ChIJA0mr8lrBGxMR4toeMZ3OzUs",
    "name": "Autoscuola Li Vigni",
    "lat": 37.7233294,
    "lng": 12.5168947
  },
  {
    "id": "ChIJT4JavehrLhMRlQeQLKJi0UE",
    "name": "Autoscuola CARS",
    "lat": 42.7917157,
    "lng": 13.0942758
  },
  {
    "id": "ChIJR6oUXKeZERMRVidJudC0SB8",
    "name": "Autoscuola Accetta",
    "lat": 36.9283268,
    "lng": 14.721777300000001
  },
  {
    "id": "ChIJV8VLRcCiLhMRNT8cCE6VkHg",
    "name": "Autoscuola Vigilanzi - Sede Deruta",
    "lat": 42.978513,
    "lng": 12.4129284
  },
  {
    "id": "ChIJS9IAWg4BLBMRyXUfwKvSpGc",
    "name": "Autoscuola Trasimeno Di Castellani Fernando",
    "lat": 43.1905401,
    "lng": 12.1326302
  },
  {
    "id": "ChIJvVWDAilQLBMRCJwli8ITfbg",
    "name": "Autoscuola Flaminia",
    "lat": 43.546229,
    "lng": 12.658842
  },
  {
    "id": "ChIJDxGHBDatOhMRGoqF2TMJd2w",
    "name": "Autoscuola OTTAVIANI",
    "lat": 41.609992999999996,
    "lng": 13.549961999999999
  },
  {
    "id": "ChIJIdpdQO-ee0cRKK6CAbpg0rY",
    "name": "Autoscuola 4 Ruote",
    "lat": 45.678789599999995,
    "lng": 13.3861034
  },
  {
    "id": "ChIJkS5ywH4CLBMR-X8JOuz4l8E",
    "name": "Autoscuola Magionese",
    "lat": 43.140049399999995,
    "lng": 12.204400999999999
  },
  {
    "id": "ChIJnQauu-IGLhMRtkwC6irSFQo",
    "name": "Autoscuola Silveri",
    "lat": 42.9599864,
    "lng": 13.416478399999999
  },
  {
    "id": "ChIJO2plGALie0cRkUbZYit2KT8",
    "name": "Autoscuola - Agenzia Livenza Snc",
    "lat": 45.7313423,
    "lng": 12.680893399999999
  },
  {
    "id": "ChIJD02JckpiGRMRvXmBfFkKTgI",
    "name": "Autoscuola Quadrifoglio",
    "lat": 38.016536699999996,
    "lng": 12.553403699999999
  },
  {
    "id": "ChIJM3exEITtLBMRkQEsiEHLd3w",
    "name": "AUTOSCUOLA BATTELLI",
    "lat": 43.8695954,
    "lng": 12.490705
  },
  {
    "id": "ChIJvSQSu-7BMRMR3pUuqsxDDLQ",
    "name": "Autoscuola Di Teodoro",
    "lat": 42.628665999999996,
    "lng": 13.8454582
  },
  {
    "id": "ChIJ1_cyzWORLhMR3toEcGmdHCI",
    "name": "Autoscuola Bacchi ACI di Cardoni Roberto e Alessandro S.N.C.",
    "lat": 42.8706635,
    "lng": 12.5592195
  },
  {
    "id": "ChIJ6fWMpGORLhMRgu8i9lxwcE0",
    "name": "Autoscuola Italia",
    "lat": 42.871070499999995,
    "lng": 12.5614251
  },
  {
    "id": "ChIJSfstqZbHGxMR02cQsokBqJg",
    "name": "AUTOSCUOLA CASANO DI SALADINO GIOVANNI",
    "lat": 37.65605,
    "lng": 12.5926429
  },
  {
    "id": "ChIJVxc9Bte6LBMR_2XS8ic1boM",
    "name": "Autoscuola S. Egidio - Cesena Guida S.r.l.",
    "lat": 44.15446,
    "lng": 12.2639631
  },
  {
    "id": "ChIJvfdaci4VKRMRoSUZ_QXHHgs",
    "name": "Autoscuola Amiata Di Mammolotti Luca",
    "lat": 42.881371,
    "lng": 11.671935999999999
  },
  {
    "id": "ChIJQ5yGNfp5LxMRhyQFyC2_3XM",
    "name": "autoscuola guidonia sas",
    "lat": 41.991242,
    "lng": 12.720683399999999
  },
  {
    "id": "ChIJ9epBmXnyOhMRHEfAL9M19Cg",
    "name": "Autoscuola Driver Di Gliottone Antonio Individuale",
    "lat": 41.3176401,
    "lng": 14.1047301
  },
  {
    "id": "ChIJ-TXOVO3HGxMRZA0bA4vkhec",
    "name": "AUTOSCUOLA BURGIO",
    "lat": 37.6499423,
    "lng": 12.5987528
  },
  {
    "id": "ChIJtyzQjaS-OxMRhtnqdRJkOos",
    "name": "Autoscuola La Patente",
    "lat": 40.7382114,
    "lng": 14.574837299999997
  },
  {
    "id": "ChIJQy8eEamKJRMRpYgqTNik6Zg",
    "name": "Autoscuola",
    "lat": 41.8696511,
    "lng": 12.4456939
  },
  {
    "id": "ChIJU_zkkRMjJRMRWa972a-pWfk",
    "name": "Autoscuola Guglielmo Antonio & Mirabella Franco S.N.C.",
    "lat": 41.2862765,
    "lng": 13.2393202
  },
  {
    "id": "ChIJvc80xEfTLhMR2ulQejhjBVw",
    "name": "AUTOSCUOLA \" PROFILI \"",
    "lat": 42.631488,
    "lng": 12.080154
  },
  {
    "id": "ChIJu1ZXs75xekcRtzflM6TTomg",
    "name": "Autoscuola e Agenzia Pratiche Auto VALCANALE",
    "lat": 46.5047116,
    "lng": 13.574033
  },
  {
    "id": "ChIJASuMExXTOhMRS3EU4VmwA3M",
    "name": "Autoscuole Golfo di Camelio Massimo",
    "lat": 41.215081,
    "lng": 13.5684987
  },
  {
    "id": "ChIJ29ugtrLvOhMRStFvSBWhW2k",
    "name": "AUTOSCUOLA AURORA",
    "lat": 41.2510809,
    "lng": 14.0643864
  },
  {
    "id": "ChIJMYn3wDgxJRMRfWgMVWNJoDY",
    "name": "Autoscuola Bob Snc Di Iudicone Angelo & Claudio",
    "lat": 41.3570475,
    "lng": 13.429912499999999
  },
  {
    "id": "ChIJK0p79nLSOhMRWF-vacTiVcQ",
    "name": "Autoscuola Agenzia Europa",
    "lat": 41.2591514,
    "lng": 13.611478799999999
  },
  {
    "id": "ChIJs1Oki1CSMRMRbbhHgQUqNVQ",
    "name": "Autoscuola Riviera",
    "lat": 42.7494425,
    "lng": 13.9692178
  },
  {
    "id": "ChIJ0cqgITCDEBMRc44a6sDMGEA",
    "name": "Autoscuola Imera",
    "lat": 37.3154821,
    "lng": 13.582138599999999
  },
  {
    "id": "ChIJjXyZ7ubHGxMRPxwGC3LgNQ4",
    "name": "Autoscuola Eden Di Nuccio Massimo",
    "lat": 37.6516382,
    "lng": 12.5996586
  },
  {
    "id": "ChIJzbH91FiBEBMRNx8vAGIxzHM",
    "name": "Autoscuola Akragas - Scuola Nautica - Agenzia Pratiche Auto",
    "lat": 37.270309399999995,
    "lng": 13.6188849
  },
  {
    "id": "ChIJ8d24MZnHGxMR1alMbluZ12A",
    "name": "Autoscuola Grafato",
    "lat": 37.6586425,
    "lng": 12.5819187
  },
  {
    "id": "ChIJU5ZyvlRBGhMR9ybWSuEc_3g",
    "name": "Autoscuola Geom. Ciaccio Vincenzo",
    "lat": 37.5070619,
    "lng": 13.082127999999999
  },
  {
    "id": "ChIJ-9EY-1JBGhMRHRI1oX_63JA",
    "name": "Autoscuola Sciacca Terme di Enzo Cantone",
    "lat": 37.5102437,
    "lng": 13.084050099999999
  },
  {
    "id": "ChIJr-GQtj46GhMRMeYp8rA5Bcg",
    "name": "Autoscuola Barbera",
    "lat": 37.6937663,
    "lng": 13.0180402
  },
  {
    "id": "ChIJE8xaS7NGGhMRiSn7mkqVOxM",
    "name": "Autoscuola Silvana",
    "lat": 37.5168733,
    "lng": 13.081738
  },
  {
    "id": "ChIJawPknXFHGhMRREppYHYEQzc",
    "name": "L'Autoscuola di Ciaccio Lilly",
    "lat": 37.5108785,
    "lng": 13.0777541
  },
  {
    "id": "ChIJM4NcQ69GGhMRdDkpAOKGYNc",
    "name": "Autoscuola Ciaccio",
    "lat": 37.5096538,
    "lng": 13.0710597
  },
  {
    "id": "ChIJ0YR7zAg3GhMR8ry2cmULrww",
    "name": "ASSICURAZIONI ESPOSITO M. (AUTOSCUOLA SICILIA)",
    "lat": 37.6026684,
    "lng": 12.9664524
  },
  {
    "id": "ChIJU6xE-60eJRMRMxNuWVh8FAc",
    "name": "Autoscuola Silvano Di Spaziani & C. Sas",
    "lat": 41.244875199999996,
    "lng": 13.092444799999999
  },
  {
    "id": "ChIJLd_QFK1GGhMRq9XGK7WgaoA",
    "name": "Autoscuola conti claudio",
    "lat": 37.511519299999996,
    "lng": 13.080245999999999
  },
  {
    "id": "ChIJSZBIEfWEEBMRZPXS6nOCCv0",
    "name": "Autoscuola Santarosa di Antonello Crapanzano",
    "lat": 37.311516499999996,
    "lng": 13.6612777
  },
  {
    "id": "ChIJzTc8OJnpOhMRhqlj8S7KlIo",
    "name": "AUTOSCUOLA GIORDANO 2",
    "lat": 41.228687699999995,
    "lng": 13.9304808
  },
  {
    "id": "ChIJdaX5Z1KCEBMRGxIsToC9dD4",
    "name": "Autoscuola Scerra",
    "lat": 37.3093698,
    "lng": 13.5863053
  },
  {
    "id": "ChIJd685bNJ3GhMRWipfVQNqsWc",
    "name": "Autoscuola Manno Bruno",
    "lat": 37.409561,
    "lng": 13.52909
  },
  {
    "id": "ChIJkXDd2faDEBMRdr_wbPnbb1I",
    "name": "Autoscuola Alberto - Agenzia Pratiche Automobilistiche",
    "lat": 37.2986491,
    "lng": 13.5554291
  },
  {
    "id": "ChIJ2bQovQW8OhMRccGQr0NEnKo",
    "name": "Autoscuola New Drive 2017",
    "lat": 41.4860998,
    "lng": 13.8290905
  },
  {
    "id": "ChIJcfMO0bZ4GhMRd9kzA0Hma0E",
    "name": "Autoscuola Stefano di Cinzia Alongi",
    "lat": 37.2911529,
    "lng": 13.5258597
  },
  {
    "id": "ChIJBRtmGo2EEBMR6OQQHz1essY",
    "name": "Autoscuola Sutera dal 1962",
    "lat": 37.314602,
    "lng": 13.6564988
  },
  {
    "id": "ChIJJ-tL21GCEBMR43LD93B58YQ",
    "name": "Autoscuola Conti Alessandro",
    "lat": 37.3091694,
    "lng": 13.582294699999998
  },
  {
    "id": "ChIJceSX41OCEBMRMQ_WlXHGY2k",
    "name": "Autoscuola Rizzo Salvatore",
    "lat": 37.311797299999995,
    "lng": 13.585755299999999
  },
  {
    "id": "ChIJ7YsmLmCFEBMR09OXOeoyu8g",
    "name": "Autoscuola Semaforo",
    "lat": 37.3074493,
    "lng": 13.6552486
  },
  {
    "id": "ChIJj99MGuCDEBMRoO69BYjRM2k",
    "name": "Autoscuola Rizzo Salvatore",
    "lat": 37.2707469,
    "lng": 13.5866969
  },
  {
    "id": "ChIJS6LEprB4GhMRPbwZkGhNe3I",
    "name": "Autoscuola Manzoni",
    "lat": 37.292893299999996,
    "lng": 13.5264518
  },
  {
    "id": "ChIJQ9-VX4mSMRMRrW1XePl1wxk",
    "name": "Autoscuola S. Flaviano",
    "lat": 42.7546495,
    "lng": 13.962875499999999
  },
  {
    "id": "ChIJEz_YFE6CEBMRGSnoVl5lqIk",
    "name": "Autoscuola Manzoni di Cortelli Tommaso",
    "lat": 37.3072764,
    "lng": 13.582961099999999
  },
  {
    "id": "ChIJ2fA_Vu7yOhMR2hg8lvn6w90",
    "name": "Autoscuola Di Pietro",
    "lat": 41.3200043,
    "lng": 14.1031955
  },
  {
    "id": "ChIJlwnJB--EEBMRmVbGsY8ceLg",
    "name": "Autoscuola Sant'Antonio Crapanzano",
    "lat": 37.3221937,
    "lng": 13.6687455
  },
  {
    "id": "ChIJt5I3z2yPEBMRkgkjaOUYxFw",
    "name": "Autoscuola Gallo Angelo",
    "lat": 37.29586510000001,
    "lng": 13.792288099999999
  },
  {
    "id": "ChIJZaUza0uJEBMR_JxEYeZQKHc",
    "name": "RInollo Autoscuola Agenzia Pratiche Auto",
    "lat": 37.1926916,
    "lng": 13.7623739
  },
  {
    "id": "ChIJybV_sgpsGhMREBF6t2XsyRs",
    "name": "Autoscuola Amodei",
    "lat": 37.5020216,
    "lng": 13.2671101
  },
  {
    "id": "ChIJRSXGrPtvGhMRvqAj6fce7Ts",
    "name": "Autoscuole Infurna Group",
    "lat": 37.395279599999995,
    "lng": 13.3501129
  },
  {
    "id": "ChIJgwVefQZYFxMRJWue0u5d79Y",
    "name": "Autoscuola Ortello",
    "lat": 38.0410356,
    "lng": 13.548888999999999
  },
  {
    "id": "ChIJmSEBG-CDEBMRpAcUc19DXpE",
    "name": "Autoscuola Rizzo Salvatore",
    "lat": 37.2737543,
    "lng": 13.6140327
  },
  {
    "id": "ChIJ18oGCvKEEBMRVRRFyQeSW5s",
    "name": "Autoscuola Piscopo",
    "lat": 37.319894,
    "lng": 13.6642446
  },
  {
    "id": "ChIJzWStxWOEEBMR3Za0bnSkNgA",
    "name": "Autoscuola Sutera di Sutera Sardo Giovanni",
    "lat": 37.3073999,
    "lng": 13.6527782
  },
  {
    "id": "ChIJ68yD5ExeEBMR3kz0qUHiBtU",
    "name": "Autoscuola E Scuola nautica Giuseppe Licata D'Andrea di Vincenzo Licata D'Andrea e f.lli sas",
    "lat": 37.1062851,
    "lng": 13.945878599999999
  },
  {
    "id": "ChIJgTyfoUleEBMREHLI5QVqHPU",
    "name": "AUTOSCUOLA \"FRANCO LICATA D'ANDREA\"",
    "lat": 37.1019891,
    "lng": 13.940260499999999
  },
  {
    "id": "ChIJJ9B41EWIEBMRrFpEHGk9YF4",
    "name": "Autoscuola Bellanti Di Bellanti Angelo & Trupia Carlo S.A.S.",
    "lat": 37.1921603,
    "lng": 13.7628436
  },
  {
    "id": "ChIJ-0vsPUSSEBMRP27mXzfvCWY",
    "name": "Autoscuole Turone di Turone Carmelo e Ivan",
    "lat": 37.3564377,
    "lng": 13.8517452
  },
  {
    "id": "ChIJXQrMYmlfEBMRHEbUET3q46c",
    "name": "Autoscuola e scuola nautica San Francesco di Di Miceli Gianluca",
    "lat": 37.104034899999995,
    "lng": 13.936059499999999
  },
  {
    "id": "ChIJ57Be0kCSEBMRqp6-K_EENi0",
    "name": "Autoscuola e Studio di Consulenza Automobilistico Primavera",
    "lat": 37.3558355,
    "lng": 13.8473834
  },
  {
    "id": "ChIJQzv8tTeIEBMRNslcEb854Lc",
    "name": "Autoscuola Farruggio Giuseppe Giovanni",
    "lat": 37.190644899999995,
    "lng": 13.7670411
  },
  {
    "id": "ChIJl2UfvFBfEBMRbOPMAy_5JWE",
    "name": "AUTOSCUOLA ITALIANO LICATA",
    "lat": 37.1111138,
    "lng": 13.9308879
  },
  {
    "id": "ChIJA_qqkTVeEBMRRa1olBg-rkA",
    "name": "Autoscuola Bruna",
    "lat": 37.1055504,
    "lng": 13.936694399999999
  },
  {
    "id": "ChIJz5euVDTzEBMRmcTJAAOdzIg",
    "name": "Autoscuola Centrale",
    "lat": 37.2611377,
    "lng": 13.9176332
  },
  {
    "id": "ChIJ3areJWBVEBMR2XChg8fDQXw",
    "name": "Autoscuola Gaetano Romano",
    "lat": 37.081636599999996,
    "lng": 14.2313066
  },
  {
    "id": "ChIJvwdx4XUHERMRaOtYYcBdgbs",
    "name": "AUTOSCUOLA ITALIANO 3",
    "lat": 37.146289800000005,
    "lng": 14.3956153
  },
  {
    "id": "ChIJozlTkVOCEBMRNLp0ClxfKLU",
    "name": "Autoscuola Alcozer",
    "lat": 37.3123758,
    "lng": 13.5860299
  },
  {
    "id": "ChIJLwjCVjReEBMRE9c_tqtw7q0",
    "name": "Autoscuola Sant'Angelo",
    "lat": 37.1066067,
    "lng": 13.934548699999999
  },
  {
    "id": "ChIJQ1MrMgKDEBMRSTAN6idpGBk",
    "name": "Consorzio Autoscuole Della Prov. Di Agrigento",
    "lat": 37.32381,
    "lng": 13.592709999999999
  },
  {
    "id": "ChIJJZLKB37CEBMRIW3JPwdwDpQ",
    "name": "Autoscuola Alpa Di Andaloro C. Andaloro V. Garofalo P. Snc",
    "lat": 37.4764519,
    "lng": 14.0510305
  },
  {
    "id": "ChIJsydq7-NUEBMRFL0hPlrF_KY",
    "name": "Autoscuola Nicosia",
    "lat": 37.0661689,
    "lng": 14.256248999999999
  },
  {
    "id": "ChIJVbi-Nk6SEBMRc0xtngTVJyc",
    "name": "Autoscuola Eleonora di Taibi Giuseppe",
    "lat": 37.3564149,
    "lng": 13.8480634
  },
  {
    "id": "ChIJ87ME63F5GhMRvKOxeXywnFs",
    "name": "autoscuole Infurna Group srl",
    "lat": 37.311005,
    "lng": 13.4650017
  },
  {
    "id": "ChIJ49S5ABH9ExMRarPZG3_CR54",
    "name": "Autoscuola Effegi",
    "lat": 37.5347747,
    "lng": 15.0794601
  },
  {
    "id": "ChIJn-3SiDztEBMRwHea_5dKdHM",
    "name": "Autoscuola di Michelangelo Volpe",
    "lat": 37.3330882,
    "lng": 13.991181200000002
  },
  {
    "id": "ChIJOT51zRTwEBMR_6FjtTepXQA",
    "name": "Patente Riesi Autoscuole Nino Sanfilippo",
    "lat": 37.2810673,
    "lng": 14.0806273
  },
  {
    "id": "ChIJWSjjSU1eEBMR_aFfxlcDR-g",
    "name": "AUTOSCUOLA DALDI",
    "lat": 37.107420399999995,
    "lng": 13.947766699999999
  },
  {
    "id": "ChIJw1pT5-ntEBMR_pxOKSTwAWE",
    "name": "Autoscuola di Filippo Volpe",
    "lat": 37.333286099999995,
    "lng": 13.9912542
  },
  {
    "id": "ChIJH3heij-SEBMRpxu02N9azog",
    "name": "Autoscuola Trinacria",
    "lat": 37.3525987,
    "lng": 13.8447143
  },
  {
    "id": "ChIJ1W3xrmacEBMRU5NuTXxdgyg",
    "name": "Autoscuola Butera",
    "lat": 37.4044278,
    "lng": 13.6183956
  },
  {
    "id": "ChIJ_8BMUgBVEBMRXZcgSmgdWWA",
    "name": "Autoscuola Italiano",
    "lat": 37.074375499999995,
    "lng": 14.2422382
  },
  {
    "id": "ChIJr77p7AUMGhMR_sUqoL7YKMQ",
    "name": "Autoscuola San Cristoforo",
    "lat": 37.6188407,
    "lng": 13.444049099999999
  },
  {
    "id": "ChIJT6e6gYqDEBMRFanntEQtuMU",
    "name": "Autoscuola Rizzo Salvatore",
    "lat": 37.331526499999995,
    "lng": 13.5907118
  },
  {
    "id": "ChIJfW3s2makERMR2KeK3BXvLNI",
    "name": "Autoscuola 2000 Di Tasca Salvatore",
    "lat": 36.956627,
    "lng": 14.545526500000001
  },
  {
    "id": "ChIJs6RRM2fCEBMRHySEMaegmmY",
    "name": "Autoscuola Petrantoni Di Petrantoni Gaetano & Figli Snc",
    "lat": 37.4880912,
    "lng": 13.994780899999999
  },
  {
    "id": "ChIJcWPWaa6REBMR3ofmqWNrZeA",
    "name": "AUTOSCUOLA DRIVER'S LICENCE di Alessandra Palermo",
    "lat": 37.406504,
    "lng": 13.736767299999999
  },
  {
    "id": "ChIJYT462oicEBMRQKmkQV1BaYg",
    "name": "Autoscuola Stefano Di Alongi Cinzia",
    "lat": 37.397263599999995,
    "lng": 13.6197398
  },
  {
    "id": "ChIJx2kgm0JVEBMRlz_0Q9UAB2s",
    "name": "Autoscuola Romano Centro Gela",
    "lat": 37.0674834,
    "lng": 14.2483246
  },
  {
    "id": "ChIJ648cOa1VEBMRJylIS34_Nok",
    "name": "Autoscuola Vedda E Russo Snc",
    "lat": 37.0729298,
    "lng": 14.2319468
  },
  {
    "id": "ChIJMfvqOK1VEBMR2YGIKIcjrwA",
    "name": "Autoscuola Anfibio",
    "lat": 37.0670109,
    "lng": 14.251050699999999
  },
  {
    "id": "ChIJF5mBBUn5EBMRvbTRUx7aMzg",
    "name": "SANFILIPPO AUTOSCUOLA",
    "lat": 37.187364,
    "lng": 14.1850828
  },
  {
    "id": "ChIJZbbOSj-mERMRk5luSgcFFjY",
    "name": "Autoscuola Russo",
    "lat": 37.025172,
    "lng": 14.4935547
  },
  {
    "id": "ChIJw8ZJ7hPwEBMRjTk9pUsCuy0",
    "name": "Baldi Rocco Autoscuola",
    "lat": 37.2849149,
    "lng": 14.083516099999999
  },
  {
    "id": "ChIJETERu6CZERMR4QNX2MtbwHE",
    "name": "Autoscuola dei Flli Tumino",
    "lat": 36.927529299999996,
    "lng": 14.7240299
  },
  {
    "id": "ChIJIfDWy7PzEBMRbfs_00uKq0E",
    "name": "Autoscuola Di Pasquali",
    "lat": 37.268327299999996,
    "lng": 13.9756757
  },
  {
    "id": "ChIJ4yFd1kbjEBMRGRI9j-9XRME",
    "name": "Autoscuola La Licata",
    "lat": 37.3010382,
    "lng": 14.213292899999999
  },
  {
    "id": "ChIJcwf7ovukERMRoDNlUddhNu4",
    "name": "Autoscuola 2000 Di Tasca Salvatore",
    "lat": 36.945685999999995,
    "lng": 14.526352500000002
  },
  {
    "id": "ChIJoUNIwtMGERMRbry4JV_uZBg",
    "name": "Autoscuola Aurora",
    "lat": 37.1455738,
    "lng": 14.383988200000001
  },
  {
    "id": "ChIJjUsNW6oPERMR8zZpJlzsJGg",
    "name": "Autoscuola Go&Drive",
    "lat": 37.2295401,
    "lng": 14.5246131
  },
  {
    "id": "ChIJVWn6YzQOERMR3SGDSgS6b5w",
    "name": "Autoscuola Marino Di Marino Franco Massimo",
    "lat": 37.2304077,
    "lng": 14.523510599999998
  },
  {
    "id": "ChIJs_l9SrLzEBMRTyq6k23yCnA",
    "name": "Autoscuola Messana",
    "lat": 37.2687064,
    "lng": 13.975131399999999
  },
  {
    "id": "ChIJ37rWPc4GERMRkB5pjLZdLJs",
    "name": "Autoscuola Piave",
    "lat": 37.150025,
    "lng": 14.3866024
  },
  {
    "id": "ChIJGW8vLaaRERMROQS8VPTJvoc",
    "name": "L'Autoscuola di Fabrizio Maltese",
    "lat": 36.84159,
    "lng": 14.769422299999999
  },
  {
    "id": "ChIJswgwItqQERMRe9UOytccxwU",
    "name": "AUTOSCUOLA MELILLI 1952",
    "lat": 36.8444906,
    "lng": 14.7653586
  },
  {
    "id": "ChIJxfkqqwqZERMR3PzOsOln6T0",
    "name": "AUTOSCUOLA MELINDA",
    "lat": 36.9281578,
    "lng": 14.7101202
  },
  {
    "id": "ChIJU3suJ7uZERMR8fTdIDZqtjM",
    "name": "Autoscuola Licata",
    "lat": 36.9160634,
    "lng": 14.720123899999999
  },
  {
    "id": "ChIJ0XIgJ_qkERMRMdmGKpgLaWk",
    "name": "Autoscuola Interlici di Giovanni Interlici & C. s.a.s.",
    "lat": 36.9474801,
    "lng": 14.528525099999998
  },
  {
    "id": "ChIJiS2n-likERMRMHaEp3AHJ5o",
    "name": "Autoscuola Turbo Di Ragusa Giuseppe",
    "lat": 36.954116,
    "lng": 14.534193000000002
  },
  {
    "id": "ChIJ2YeQya2jERMRJubFFtRqXXE",
    "name": "Autoscuola Di Nicaso Roberto",
    "lat": 36.9511667,
    "lng": 14.607661600000002
  },
  {
    "id": "ChIJgwzykFGZERMRbyBJys9zRnc",
    "name": "Autoscuola Lorenzo",
    "lat": 36.9272877,
    "lng": 14.696661800000001
  },
  {
    "id": "ChIJ_1N8j6uZERMRmmxL-uBD2gg",
    "name": "Autoscuola Marcello",
    "lat": 36.9261689,
    "lng": 14.7085134
  },
  {
    "id": "ChIJq-bWWsmVERMRPI3D_ffAOCE",
    "name": "Autoscuola Macauda",
    "lat": 36.783441499999995,
    "lng": 14.6918998
  },
  {
    "id": "ChIJIY-y3vWkERMRdWrCRP-pDd8",
    "name": "Autoscuola Macca",
    "lat": 36.9502208,
    "lng": 14.536476500000001
  },
  {
    "id": "ChIJ53IhrfiRERMRsfse-StTivA",
    "name": "Autoscuola Caruso",
    "lat": 36.8372854,
    "lng": 14.763410200000001
  },
  {
    "id": "ChIJJX-cVPikERMRub4z7v1yMs4",
    "name": "Autoscuola Russo",
    "lat": 36.950358,
    "lng": 14.5279971
  },
  {
    "id": "ChIJwcCDLXC7ERMRCgbVUV-Qn-Q",
    "name": "Autoscuola Cannizzo",
    "lat": 36.827127499999996,
    "lng": 14.5255214
  },
  {
    "id": "ChIJRT0wG0ilERMRRFl9UcZKV6Y",
    "name": "Autoscuola Macca",
    "lat": 36.9535929,
    "lng": 14.525145999999998
  },
  {
    "id": "ChIJhV3uptmQERMRVNcwXbQAVjY",
    "name": "Piazzese Tommaso & C.Sas Autoscuola",
    "lat": 36.8427468,
    "lng": 14.766963500000001
  },
  {
    "id": "ChIJmweP4JmVERMRPmiWIaKipUc",
    "name": "Autoscuola Macauda",
    "lat": 36.7925726,
    "lng": 14.701151099999999
  },
  {
    "id": "ChIJFRYLW8mVERMR9YpPChX_pkE",
    "name": "Autoscuola Norini",
    "lat": 36.7883873,
    "lng": 14.698947299999999
  },
  {
    "id": "ChIJtfxpE6yZERMRojTbalK5d28",
    "name": "AUTOSCUOLA SAN GIORGIO DI VIOLA GIUSEPPE",
    "lat": 36.9239886,
    "lng": 14.7099645
  },
  {
    "id": "ChIJXZxLA5ySERMRIealRVke5zQ",
    "name": "Autoscuola Baglieri Tiziana",
    "lat": 36.7329936,
    "lng": 14.8518348
  },
  {
    "id": "ChIJneWXw1mkERMRsvCnd8jx8Ac",
    "name": "Autoscuola Grimaldi",
    "lat": 36.9561056,
    "lng": 14.531530799999999
  },
  {
    "id": "ChIJ1SQ9G3CNERMRFryxjByigZE",
    "name": "Autoscuola Gm Di Giovanni Modica",
    "lat": 36.8575181,
    "lng": 14.7604435
  },
  {
    "id": "ChIJSW_6DCiRERMREXYqWXBviBM",
    "name": "Autoscuola Baglieri Massimiliano",
    "lat": 36.786349099999995,
    "lng": 14.695971299999998
  },
  {
    "id": "ChIJrXn6sqCZERMRQ12gz46sZr8",
    "name": "Autoscuola Licitra",
    "lat": 36.9276584,
    "lng": 14.723128899999999
  },
  {
    "id": "ChIJPfG4s6CZERMRE1r3AXIfKD8",
    "name": "Autoscuola Di Antoci Giancarlo E C. Sas",
    "lat": 36.927623499999996,
    "lng": 14.723130399999999
  },
  {
    "id": "ChIJX_tVP1SkERMRmYw9FTP2xzo",
    "name": "Autoscuola Incardona Gabriele Co",
    "lat": 36.956874,
    "lng": 14.5233072
  },
  {
    "id": "ChIJgW2KC0oOERMRMduLzCQyhO4",
    "name": "Vulcano AUTOSCUOLE",
    "lat": 37.2261453,
    "lng": 14.5235468
  },
  {
    "id": "ChIJZ8FLLKeZERMRm9E4FX7Pa_M",
    "name": "Autoscuola Amico",
    "lat": 36.926302899999996,
    "lng": 14.7225369
  },
  {
    "id": "ChIJGR8ccP6kERMRSgdKYJlYXeg",
    "name": "Autoscuola Talento S.a.s.",
    "lat": 36.949098,
    "lng": 14.5210356
  },
  {
    "id": "ChIJx3GtbX65ERMRp6z2Q7wFvaE",
    "name": "Scuola Guida Cabibbo",
    "lat": 36.825472,
    "lng": 14.523845
  },
  {
    "id": "ChIJY1Y0NZ6SERMRM-J8QWa69dE",
    "name": "Autoscuola Scala Di Scala Orazio",
    "lat": 36.726124,
    "lng": 14.844180999999999
  },
  {
    "id": "ChIJMzPEjCOhERMRGO4p55X3QjE",
    "name": "Autoscuola Nicaso Antonino",
    "lat": 37.023567,
    "lng": 14.583705
  },
  {
    "id": "ChIJe-FbsqAJERMRJNg1c5ENLrM",
    "name": "Autoscuola e Assicurazioni CASCONE",
    "lat": 37.089232599999995,
    "lng": 14.5612527
  },
  {
    "id": "ChIJDezZrthzERMRYtKip53G6TE",
    "name": "AUTOSCUOLA DIPIETRO",
    "lat": 37.1615578,
    "lng": 14.751679200000002
  },
  {
    "id": "ChIJj7yHIa6QERMR4YWG8_iPkXY",
    "name": "Autoscuola Mallia",
    "lat": 36.8715658,
    "lng": 14.759592999999999
  },
  {
    "id": "ChIJSbAPCEn5EBMRs71LFKOUdqA",
    "name": "Autoscuole Nino Sanfilippo di Sanfilippo Antonino",
    "lat": 37.187349,
    "lng": 14.185096
  },
  {
    "id": "ChIJPaayV0wOERMRdrmvmzDd6U8",
    "name": "Autoscuola Dipietro",
    "lat": 37.2192781,
    "lng": 14.5219388
  },
  {
    "id": "ChIJz93I-reQERMRAt_gHXEe70Y",
    "name": "Autoscuola Sprint 2000 Di Viola Maria",
    "lat": 36.860937199999995,
    "lng": 14.763044200000001
  },
  {
    "id": "ChIJVa_2WSeRERMRNiY_vigQ39U",
    "name": "AUTOSCUOLA SAN GIORGIO DI ANGELA VIOLA",
    "lat": 36.8369382,
    "lng": 14.768105799999999
  },
  {
    "id": "ChIJaV9fuCyPERMRdBWHVaL5iY4",
    "name": "Autoscuola Union Snc",
    "lat": 36.8236649,
    "lng": 14.9460144
  },
  {
    "id": "ChIJZe_tA4HRExMRwaGeUV2AxE0",
    "name": "Autoscuola Moderna",
    "lat": 37.1577335,
    "lng": 15.1865571
  },
  {
    "id": "ChIJVZWKHubRExMRAqG3_qkQAY8",
    "name": "Autoscuola Gentile di Ludovico Gentile",
    "lat": 37.0929028,
    "lng": 15.207991
  },
  {
    "id": "ChIJoe6HfGLRExMR0zZLuLucH0I",
    "name": "Autoscuola Tralongo Di Tralongo Graziano",
    "lat": 37.0835734,
    "lng": 15.1580832
  },
  {
    "id": "ChIJNwpaaHKNERMRO1-1v7PQHXE",
    "name": "Autoscuola Macauda",
    "lat": 36.731424499999996,
    "lng": 14.849711300000001
  },
  {
    "id": "ChIJRbYcMa8uEhMREvLteglfr2E",
    "name": "Autoscuola Artale di Massimo e Marilena",
    "lat": 36.911873899999996,
    "lng": 15.135634099999999
  },
  {
    "id": "ChIJwf15rbEpEhMRFYXW-wrS0DY",
    "name": "Autoscuola Mina",
    "lat": 36.890795,
    "lng": 15.074371900000001
  },
  {
    "id": "ChIJD8cFiWSNERMRuq8qrtbINJA",
    "name": "Autoscuola Macauda Antonino",
    "lat": 36.7847821,
    "lng": 14.9070648
  },
  {
    "id": "ChIJ_ef4sp6OERMRIc6APOF_S1Q",
    "name": "Autoscuola Ricca",
    "lat": 36.7833912,
    "lng": 14.910645299999997
  },
  {
    "id": "ChIJt3eGMaGJERMRG5IUfTPSz9Q",
    "name": "L' Autoscuola di Antonio Aprile",
    "lat": 36.8196517,
    "lng": 14.946736200000002
  },
  {
    "id": "ChIJD-Mc3mGNERMRsgTV_axEzQo",
    "name": "Autoscuola Denaro",
    "lat": 36.7272318,
    "lng": 14.845759000000001
  },
  {
    "id": "ChIJr9pYamR9ERMRdut6vsoxgSA",
    "name": "Autoscuola Fratelli Santo",
    "lat": 37.16216790000001,
    "lng": 15.0347542
  },
  {
    "id": "ChIJvye_5yLVExMR9DPD62byhVo",
    "name": "Autoscuola Garro",
    "lat": 37.0293943,
    "lng": 15.068443900000002
  },
  {
    "id": "ChIJs2dIvwchEhMR5FKWqbANSHY",
    "name": "Autoscuola Futura",
    "lat": 36.7147765,
    "lng": 15.089270899999997
  },
  {
    "id": "ChIJPb78hBPXExMR5_c7Loc27Gc",
    "name": "Autoscuola La bici",
    "lat": 37.1621856,
    "lng": 15.0348681
  },
  {
    "id": "ChIJ1a4MKWPRExMRAQZls4K4KKg",
    "name": "Autoscuola Romano Riccardo",
    "lat": 37.0875522,
    "lng": 15.1625631
  },
  {
    "id": "ChIJzfkWwJuOERMRXqwrQ5E9iUg",
    "name": "Autoscuola Piazzese",
    "lat": 36.785241899999995,
    "lng": 14.9052863
  },
  {
    "id": "ChIJja0XmK4uEhMRIYJexZyCu7E",
    "name": "Autoscuola Garofalo",
    "lat": 36.9113235,
    "lng": 15.1324497
  },
  {
    "id": "ChIJ8-b0PF7RExMRlOGKsxq8VHs",
    "name": "Autoscuola & Scuola Nautica Gentile",
    "lat": 37.081219499999996,
    "lng": 15.1508415
  },
  {
    "id": "ChIJoWAYpa4uEhMR0ODLeBIJceQ",
    "name": "Autoscuola Union",
    "lat": 36.9076133,
    "lng": 15.1275927
  },
  {
    "id": "ChIJ4__fwBnPExMRd3hsN6GvI9A",
    "name": "Autoscuola Madonnina",
    "lat": 37.0738969,
    "lng": 15.287064299999999
  },
  {
    "id": "ChIJU0HnZPjZExMRKqcSNNmXhnI",
    "name": "Autoscuola La Road School Di Santo Luigi",
    "lat": 37.179151700000006,
    "lng": 15.125200200000002
  },
  {
    "id": "ChIJZ4RkC2B9ERMRhJ3bUQdNx58",
    "name": "Autoscuola La Road School Di Santo Luigi",
    "lat": 37.1621042,
    "lng": 15.034747399999999
  },
  {
    "id": "ChIJjy_eou94ERMRthJnN20tMWk",
    "name": "Autoscuola PIPPO BOLOGNA",
    "lat": 37.0612788,
    "lng": 14.906068699999999
  },
  {
    "id": "ChIJxamgrhkiEhMRlS-45bj9x4A",
    "name": "Autoscuola La Moderna",
    "lat": 36.7143066,
    "lng": 15.089173799999998
  },
  {
    "id": "ChIJ6xukYZTOExMRmP33EaNQtsM",
    "name": "Autoscuola Al Volante di Gaetano De Caro",
    "lat": 37.0842151,
    "lng": 15.285021799999999
  },
  {
    "id": "ChIJvddMIP7PExMR9hm7lbBcgL4",
    "name": "Scuola Guida Archimede",
    "lat": 37.0923589,
    "lng": 15.2768802
  },
  {
    "id": "ChIJRQ0lqJ7OExMRDOspQEyEWYg",
    "name": "Autoscuola 'Il Sorpasso'",
    "lat": 37.0708742,
    "lng": 15.2838021
  },
  {
    "id": "ChIJrxw7e5POExMRstHRtPXIH5o",
    "name": "AUTOSCUOLA FAZZINA",
    "lat": 37.0851968,
    "lng": 15.2833238
  },
  {
    "id": "ChIJy_mk_b7OExMRqdpqsMMgPwM",
    "name": "Autoscuola Cannella Di Cannella Rosario",
    "lat": 37.087348,
    "lng": 15.289600799999997
  },
  {
    "id": "ChIJuZ0URp7OExMR-pOCxD-S0SA",
    "name": "Autoscuola Contarino Giuseppe",
    "lat": 37.0673837,
    "lng": 15.286070599999997
  },
  {
    "id": "ChIJVwJ2AL_OExMRi25eVV7DfbM",
    "name": "Autoscuola Corrado Corioli",
    "lat": 37.0834587,
    "lng": 15.292646999999999
  },
  {
    "id": "ChIJZQTIL5_OExMRdNiKEtzlsSg",
    "name": "Autoscuola \"Bologna\" di Fontana Salvatore S.a.s",
    "lat": 37.0704402,
    "lng": 15.287381199999999
  },
  {
    "id": "ChIJFWvWP3UtEhMRb_i009KRD9w",
    "name": "Sirugo",
    "lat": 36.9757975,
    "lng": 15.1996214
  },
  {
    "id": "ChIJQVdYxffOExMRHdcbLry3Gd8",
    "name": "Autoscuola S. Chindemi",
    "lat": 37.0977756,
    "lng": 15.2672048
  },
  {
    "id": "ChIJtwjiEAkhEhMR0lxSmf_EHvw",
    "name": "L'Autoscuola Di Aprile Antonio",
    "lat": 36.715987999999996,
    "lng": 15.09465
  },
  {
    "id": "ChIJL5WXxvHOExMRQ_vm_YOFHBQ",
    "name": "Consorzio Autoscuole Aretusee",
    "lat": 37.094664,
    "lng": 15.276952800000002
  },
  {
    "id": "ChIJQaI497LEExMROtu4QW-WOpQ",
    "name": "Autoscuola La Sonora Di Ragusa Antonio & Co. Snc",
    "lat": 37.2294668,
    "lng": 15.2221076
  },
  {
    "id": "ChIJ611hXpLOExMR1J11FobyD6Q",
    "name": "Autoscuola Il Tornante Di Cappuccio Luigi",
    "lat": 37.0847007,
    "lng": 15.2793922
  },
  {
    "id": "ChIJ9evb5G7OExMRBFftl7djY3A",
    "name": "Autoscuola Di .Chindemi Geom. Salvatore",
    "lat": 37.0843124,
    "lng": 15.251043299999997
  },
  {
    "id": "ChIJc6qqs3DQExMReDf4kVo_6WY",
    "name": "Autoscuola Aretusa",
    "lat": 37.1575243,
    "lng": 15.185203999999999
  },
  {
    "id": "ChIJa07TVFXDExMRC2fZYFggj1M",
    "name": "Autoscuola E Scuola Nautica Trinacria Snc.",
    "lat": 37.2419849,
    "lng": 15.219964
  },
  {
    "id": "ChIJrRlcoKAhEhMRjV_enT-TTzk",
    "name": "AUTOSCUOLA GAROFALO",
    "lat": 36.7119444,
    "lng": 15.097965
  },
  {
    "id": "ChIJnXiD2PDOExMRK24vQ1POBLs",
    "name": "Autoscuola Il Veicolo",
    "lat": 37.0964531,
    "lng": 15.273098500000001
  },
  {
    "id": "ChIJLT-MYUnDExMRmdUxhVFP6sU",
    "name": "Autoscuola Mammano (Monte Tauro)",
    "lat": 37.2586472,
    "lng": 15.225474300000002
  },
  {
    "id": "ChIJEZP-6lTDExMRkdLUXPWCcTU",
    "name": "Autoscuola La Svolta Di Randazzo Ezio",
    "lat": 37.2473436,
    "lng": 15.2201278
  },
  {
    "id": "ChIJ07EzDhkiEhMRRtmxM6aAGco",
    "name": "Autoscuola Nastasi",
    "lat": 36.682829100000006,
    "lng": 15.133995200000001
  },
  {
    "id": "ChIJrbAIzlTDExMRI8tLen-Mlc8",
    "name": "Autoscuola La Sonora Di Ragusa Antonio E C. Snc",
    "lat": 37.2454228,
    "lng": 15.219914999999999
  },
  {
    "id": "ChIJSaqtb2F9ERMRBSyhoFros1I",
    "name": "AUTOSCUOLA ANTALICA",
    "lat": 37.1578936,
    "lng": 15.028563600000002
  },
  {
    "id": "ChIJLZEoZvFhERMRz_AviDgHnPY",
    "name": "Autoscuola Di Di Falco & C.S.A.S.",
    "lat": 37.2753347,
    "lng": 15.015271499999999
  },
  {
    "id": "ChIJi9F81BllERMRWfM3pdiLTdE",
    "name": "Belfiore Giuseppe Autoscuola",
    "lat": 37.225822799999996,
    "lng": 14.8809197
  },
  {
    "id": "ChIJJZQUY-1ZERMR5IL2ZU_PjtU",
    "name": "Autoscuole D'Ignoti",
    "lat": 37.5115031,
    "lng": 14.9678933
  },
  {
    "id": "ChIJzV0dLS7ZExMRqwj2g9yCvRs",
    "name": "Autoscuola Mazzone",
    "lat": 37.2512294,
    "lng": 15.0901328
  },
  {
    "id": "ChIJaz0TzpxXERMR7fZcqQs4Jls",
    "name": "Autoscuola Agenzia Piano Tavola",
    "lat": 37.5338925,
    "lng": 14.9882455
  },
  {
    "id": "ChIJdTbNPAT5ExMRGcW7vH631m0",
    "name": "Autoscuola Leotta",
    "lat": 37.618302,
    "lng": 15.161622699999997
  },
  {
    "id": "ChIJdYV8X2f9ExMREBFTk5wO2U8",
    "name": "Autoscuola Driving School",
    "lat": 37.5371074,
    "lng": 15.0394373
  },
  {
    "id": "ChIJZUJgTWz8ExMRh5OsjFEv2d4",
    "name": "Autoscuola Sicari & Flli Snc",
    "lat": 37.5661977,
    "lng": 15.1109507
  },
  {
    "id": "ChIJOdIx-w7jExMRitJjlB_m04U",
    "name": "Autoscuola Universale LE SORELLE GIANNONE",
    "lat": 37.4923273,
    "lng": 15.0446701
  },
  {
    "id": "ChIJOVt_D5X-ExMRZdoMEYPeYyc",
    "name": "Autoscuola Stop & Go",
    "lat": 37.6103604,
    "lng": 15.100334
  },
  {
    "id": "ChIJkfWQvJfiExMRAfJihSJm2ow",
    "name": "Autoscuola da Marco Corso Indipendenza",
    "lat": 37.5021394,
    "lng": 15.0601232
  },
  {
    "id": "ChIJgXvSfF3-ExMRBENXtrFyh7k",
    "name": "Autoscuola Quattro Ruote",
    "lat": 37.6161105,
    "lng": 15.076728299999997
  },
  {
    "id": "ChIJ0ZmMnQ3jExMRI6vqLwUSUNs",
    "name": "Autoscuola Da Marco",
    "lat": 37.4927136,
    "lng": 15.045818599999999
  },
  {
    "id": "ChIJ5SGWxyz9ExMRCjjHtd9Qpck",
    "name": "Autoscuola Lao' Giuseppe",
    "lat": 37.5082367,
    "lng": 15.0693188
  },
  {
    "id": "ChIJOdloWUf5ExMR8ziAOSuFFGQ",
    "name": "Autoscuola S. Lucia Di Di Mauro Giuseppe",
    "lat": 37.6066995,
    "lng": 15.142451399999997
  },
  {
    "id": "ChIJR_D5ElD7ExMRwUaDh5IHaOE",
    "name": "Autoscuola San Filippo",
    "lat": 37.5848461,
    "lng": 15.1419968
  },
  {
    "id": "ChIJc3sq1Af8ExMRnfJRx82pFS0",
    "name": "Autoscuola Futura s.n.c. di Macrì F. & Garofalo G",
    "lat": 37.5784738,
    "lng": 15.123332299999998
  },
  {
    "id": "ChIJW1-8juHjExMR6a1yRp7pNe0",
    "name": "Autoscuola Al Volante 3",
    "lat": 37.5083286,
    "lng": 15.055646
  },
  {
    "id": "ChIJpW0HM9n8ExMRl5-pWNVX_mU",
    "name": "AUTOSCUOLA TRINGALI",
    "lat": 37.5254659,
    "lng": 15.083173299999999
  },
  {
    "id": "ChIJ1TFRDyFYERMR-HNGw2H4D5Y",
    "name": "Autoscuola La Nuova S. Antonio",
    "lat": 37.5173323,
    "lng": 15.0056707
  },
  {
    "id": "ChIJOZqsUcX8ExMRAjSeJtVfEb8",
    "name": "Autoscuola Sicilia",
    "lat": 37.520614,
    "lng": 15.091301000000001
  },
  {
    "id": "ChIJ67YpbFP8ExMRrwEL5iBTJcY",
    "name": "Autoscuola Corsaro",
    "lat": 37.5587058,
    "lng": 15.0810616
  },
  {
    "id": "ChIJVVVVVbLiExMRXH3l9WJslxY",
    "name": "Drive Scuola Guida di S.Belfiore e C. Snc",
    "lat": 37.5128437,
    "lng": 15.0472226
  },
  {
    "id": "ChIJE4ocoJT9ExMRzHFiLplMX-U",
    "name": "Autoscuola S.Vito Di Caruso Salvo",
    "lat": 37.5761215,
    "lng": 15.049971500000002
  },
  {
    "id": "ChIJN5v1YUnDExMRSH--x8BdFQE",
    "name": "AUTOSCUOLA MAMMANO",
    "lat": 37.2586903,
    "lng": 15.225409800000001
  },
  {
    "id": "ChIJCVJypizBRxMRRFTUBGvoNnA",
    "name": "Autoscuola Apulia",
    "lat": 41.0078229,
    "lng": 17.0060575
  },
  {
    "id": "ChIJv2YLeuNRqEcR80PiHee0Qaw",
    "name": "Bärchens Fahrschule",
    "lat": 52.5299081,
    "lng": 13.404564899999999
  },
  {
    "id": "ChIJ7-RL9vhXrEcRr6xPKwg9qKo",
    "name": "Ready2Go - Europäische Fahrschule",
    "lat": 54.086177799999994,
    "lng": 12.125175100000002
  },
  {
    "id": "ChIJIcP92vZviEcRGxAjujewMWo",
    "name": "Autoscuola Leinì",
    "lat": 45.1855403,
    "lng": 7.7149335
  },
  {
    "id": "ChIJMyg3_heIhkcRqVCWdv4gKOo",
    "name": "AUTOSCUOLA DI VIA ROMA",
    "lat": 45.6978912,
    "lng": 8.8041372
  },
  {
    "id": "ChIJS2ZFdXdJiEcRV1ZMHwfxscI",
    "name": "Autoscuola Grand Prix Di Ciesco Mario & C. Snc",
    "lat": 45.1077966,
    "lng": 7.275880900000001
  },
  {
    "id": "ChIJ2bhGdTBghkcR5ACmEXquIzE",
    "name": "Autoscuola 2000",
    "lat": 45.6313509,
    "lng": 8.7846738
  },
  {
    "id": "ChIJp0q2jCBBhkcRBvXVbm5-aOM",
    "name": "Autoscuola San Damiano",
    "lat": 45.533847699999995,
    "lng": 8.4200859
  },
  {
    "id": "ChIJdcPK4a1uiEcRTfRvPft7DtY",
    "name": "AUTOSCUOLA LA NUOVA GUIDA - GATTUSO VENARIA",
    "lat": 45.128131499999995,
    "lng": 7.6300024
  },
  {
    "id": "ChIJp_iyl5yKhkcR9yHoGZeSyy0",
    "name": "Autoscuola \"Lonate\" s.a.s.",
    "lat": 45.5947963,
    "lng": 8.7651153
  },
  {
    "id": "ChIJBYi6g2YhhkcRtTMiCcu1Qbc",
    "name": "Autoscuola Vigliano",
    "lat": 45.564482,
    "lng": 8.0987183
  },
  {
    "id": "ChIJS72fRkO14BIRd0kCgwxJtWM",
    "name": "Autoscuola S. Barbara",
    "lat": 39.298089999999995,
    "lng": 9.2075663
  },
  {
    "id": "ChIJ-67clqXL4BIREyVcQGydpJ4",
    "name": "Autoscuola Alba",
    "lat": 39.23588170000001,
    "lng": 9.2124685
  },
  {
    "id": "ChIJLYv-xD6Y4BIRNGCyDq1VyVQ",
    "name": "Autoscuola Lecca",
    "lat": 39.439355000000006,
    "lng": 9.571909999999999
  },
  {
    "id": "ChIJYWzsPfWX4BIR4A8u4_a9mts",
    "name": "Autoscuola Numero Uno",
    "lat": 39.4217103,
    "lng": 9.566291699999999
  },
  {
    "id": "ChIJbTRJ6yPL4BIRCIkk1zf4jms",
    "name": "Autoscuola Ortu Di Ortu Marco",
    "lat": 39.2395717,
    "lng": 9.2074759
  },
  {
    "id": "ChIJfXOZ-oLK4BIRtKmHm3RtW3Q",
    "name": "Autoscuola S. Barbara",
    "lat": 39.2837854,
    "lng": 9.225409299999999
  },
  {
    "id": "ChIJzdSOMC7L4BIRdxfU94YV5lQ",
    "name": "Autoscuola Le Mans 2 Di Eredi Francesco Ginesu Sas",
    "lat": 39.237146599999996,
    "lng": 9.197498300000001
  },
  {
    "id": "ChIJD2ki9nDL4BIRzs0tBKuYTX0",
    "name": "Autoscuola le Mans 2 eredi Ginesu S.A.S. di Maria Bonaria Atzeni.",
    "lat": 39.237146599999996,
    "lng": 9.197498300000001
  },
  {
    "id": "ChIJn5IG0Zuo4BIRdXB5MhUJ2-Q",
    "name": "Autoscuola Sandalia Di Congiu Roberto",
    "lat": 39.547823099999995,
    "lng": 9.3595347
  },
  {
    "id": "ChIJNYpDFHkz5xIRX3seqdsn1m8",
    "name": "Autoscuola Azzurra",
    "lat": 39.19961,
    "lng": 9.147731
  },
  {
    "id": "ChIJGRoihz805xIRjGqreFslQwg",
    "name": "AUTOSCUOLA MARCOS",
    "lat": 39.234252,
    "lng": 9.123306
  },
  {
    "id": "ChIJDc0Fsc005xIRVMDqC5KnHcY",
    "name": "Autoscuola Sant'Elena dei F.lli Mattana S.n.c.",
    "lat": 39.2352622,
    "lng": 9.186049599999999
  },
  {
    "id": "ChIJB_0Rato05xIRmn3XujWHp8E",
    "name": "Autoscuola Aquila",
    "lat": 39.2417896,
    "lng": 9.1776301
  },
  {
    "id": "ChIJjSNh8io05xIRglPsZZvilc4",
    "name": "Autoscuola Giordano Selargius",
    "lat": 39.2511162,
    "lng": 9.106805099999999
  },
  {
    "id": "ChIJzcC32Kg15xIRVwOnrhtV7rI",
    "name": "Autoscuola Monza Due",
    "lat": 39.2597132,
    "lng": 9.1410711
  },
  {
    "id": "ChIJm04KKyE15xIRccob6chP1Hc",
    "name": "Autoscuola Isola Sarda Santa Maria Chiara 128",
    "lat": 39.2415598,
    "lng": 9.121496400000002
  },
  {
    "id": "ChIJE4I1pxg15xIREjrteb8m0do",
    "name": "Autoscuola Falco",
    "lat": 39.255280299999995,
    "lng": 9.1676751
  },
  {
    "id": "ChIJvVUOTjBv5xIRUFLIBKgTirI",
    "name": "Autoscuola Sa Spendula 2.0 di Massimo Piga",
    "lat": 39.4580568,
    "lng": 8.7394224
  },
  {
    "id": "ChIJYe2Hvq835xIRzgz-2b5V5Mc",
    "name": "Autoscuola Junior Di Pau SAS",
    "lat": 39.267147099999995,
    "lng": 9.047605599999999
  },
  {
    "id": "ChIJq-Z4nlU15xIRwtPNNkdf4X0",
    "name": "Autoscuola Mi.To. di Castaniotto S. & Cogotzi M.",
    "lat": 39.287891599999995,
    "lng": 9.1869483
  },
  {
    "id": "ChIJwZnwddJI5xIRTMFtim57uI0",
    "name": "Autoscuola Driver Monastir",
    "lat": 39.3785464,
    "lng": 9.046289999999999
  },
  {
    "id": "ChIJNcEYLBoL5xIR0MabRHBEvYQ",
    "name": "Autoscuola Ettore Tacconi",
    "lat": 39.312177500000004,
    "lng": 8.5359798
  },
  {
    "id": "ChIJzzvErA445xIR80_-omHYpKg",
    "name": "Autoscuola Junior",
    "lat": 39.298159999999996,
    "lng": 8.9951931
  },
  {
    "id": "ChIJ4f36CG005xIR8WFzjGtC7eg",
    "name": "Autoscuola Moderna Srl",
    "lat": 39.2232132,
    "lng": 9.1256979
  },
  {
    "id": "ChIJvRR0ggQ05xIR3aOK3dwofq0",
    "name": "Autoscuola Isola Sarda SAS",
    "lat": 39.2207712,
    "lng": 9.107144800000002
  },
  {
    "id": "ChIJk72GMn9H5xIR_LXR_6nB51A",
    "name": "Scuola Guida Luka's Drive",
    "lat": 39.3087129,
    "lng": 8.9676282
  },
  {
    "id": "ChIJuy6ncHM05xIREo3qJFf-GDU",
    "name": "Autoscuola Rekord di Alessia Masala s.a.s.",
    "lat": 39.2170489,
    "lng": 9.1258459
  },
  {
    "id": "ChIJZbK7U92H3RIR8e5ZRbI2T80",
    "name": "Autoscuola Duemila",
    "lat": 39.5382104,
    "lng": 8.6318272
  },
  {
    "id": "ChIJ5waYnR5c5xIRij4MEyCVjeQ",
    "name": "SERENA Autoscuola & Pratiche Auto",
    "lat": 39.5538222,
    "lng": 8.907866199999999
  },
  {
    "id": "ChIJXbvCfws05xIR96pVK8fx_gg",
    "name": "Autoscuola Cremonese",
    "lat": 39.2167558,
    "lng": 9.120793299999999
  },
  {
    "id": "ChIJ49itSbKg5xIRsuOeIE0Q-SY",
    "name": "Autoscuola Shardana di Giuliano Cadoni",
    "lat": 39.2646758,
    "lng": 8.4710792
  },
  {
    "id": "ChIJYYy1_K835xIRiIAtRQ4Su2w",
    "name": "Autoscuola Marcis",
    "lat": 39.2686485,
    "lng": 9.0467303
  },
  {
    "id": "ChIJgxbNm2Rg5xIRCXKAe28Uv-M",
    "name": "Autoscuola Montecarlo Di Zuddas Roberto",
    "lat": 39.6103588,
    "lng": 8.8234681
  },
  {
    "id": "ChIJ-4tlNCE15xIRO0lAS2ks8Ws",
    "name": "Autoscuola A.M.PA. 2 ACI READY2GO",
    "lat": 39.2522966,
    "lng": 9.1730869
  },
  {
    "id": "ChIJ6ZfY459e5xIRVeE5zNBraGU",
    "name": "Autoscuola Smeralda di Marras Cristiano e Bruno",
    "lat": 39.55797,
    "lng": 8.9014407
  },
  {
    "id": "ChIJ0ZYQ_yNn5xIRQf4sEST6rXY",
    "name": "Autoscuola Dariana",
    "lat": 39.550165899999996,
    "lng": 8.7979351
  },
  {
    "id": "ChIJo9_CYB175xIR3G064QpjGS8",
    "name": "Autoscuola Galileo di Tuveri Pier Paolo",
    "lat": 39.5376209,
    "lng": 8.629059
  },
  {
    "id": "ChIJu5IMC4hD5xIRDcrJ1j3vs-A",
    "name": "Autoscuola S. Leonardo di Podda Giuseppe",
    "lat": 39.4223279,
    "lng": 8.9233041
  },
  {
    "id": "ChIJif5IZY9T5xIRkkcZG_xP_Jk",
    "name": "Autoscuola \"La Sportiva\" di Pisu Giuseppe Senorbì",
    "lat": 39.5358848,
    "lng": 9.1306581
  },
  {
    "id": "ChIJkUvuk9Y05xIR2W8hNzCmCP0",
    "name": "Autoscuola Pani",
    "lat": 39.2444218,
    "lng": 9.1832592
  },
  {
    "id": "ChIJJ1BKMd6TGRMRFHAP-xJkpxE",
    "name": "AUTOSCUOLA ORLANDO di Orlando Matteo",
    "lat": 38.1480029,
    "lng": 13.0849921
  },
  {
    "id": "ChIJHZA5TqDCGxMRAquMfTM82dw",
    "name": "Autoscuola \"Vinci - Lo Presti\" Di Lo Presti Daniele A.",
    "lat": 37.8028191,
    "lng": 12.438718399999999
  },
  {
    "id": "ChIJNx0oxCfoGxMRs-P0pT_ti4Y",
    "name": "Autoscuola Amica",
    "lat": 37.7956901,
    "lng": 12.4348248
  },
  {
    "id": "ChIJ9SFVO53CGxMR_NL7IXmVqHw",
    "name": "Autoscuola Europa",
    "lat": 37.793358999999995,
    "lng": 12.440094199999999
  },
  {
    "id": "ChIJrRQgICfoGxMRRsagV-FMecQ",
    "name": "Autoscuola Lilybeo",
    "lat": 37.796807,
    "lng": 12.435303399999999
  },
  {
    "id": "ChIJbYkGCSfoGxMR2_9R_8ThwLQ",
    "name": "Autoscuola Baseggio di Saracco Massimiliano",
    "lat": 37.7955963,
    "lng": 12.436148
  },
  {
    "id": "ChIJo-6kIledLhMRr78yn9C9-wU",
    "name": "Autoscuola Subasio",
    "lat": 43.0770917,
    "lng": 12.5437596
  },
  {
    "id": "ChIJGef8MXPBGxMRxtPzzpUf3aY",
    "name": "AUTOSCUOLA DE VITA",
    "lat": 37.713938899999995,
    "lng": 12.491792799999999
  },
  {
    "id": "ChIJeVgwKmBpLxMRlZmtG20sLNc",
    "name": "Autoscuola Riano",
    "lat": 42.100653199999996,
    "lng": 12.5042712
  },
  {
    "id": "ChIJNTuTWtzuLRMR9HkLZMOfA70",
    "name": "Autoscuola Flaminia",
    "lat": 43.212089399999996,
    "lng": 13.2862931
  },
  {
    "id": "ChIJO3KanTPCGxMRZImvGpVnUD0",
    "name": "Valenti Autoscuola",
    "lat": 37.75051070000001,
    "lng": 12.4810053
  },
  {
    "id": "ChIJ5_iyGmlre0cRMwuavuqlmgg",
    "name": "Autoscuola Accademia di guida",
    "lat": 45.6580685,
    "lng": 13.772600500000001
  },
  {
    "id": "ChIJ3TjqVRfDGxMRY4_1yw0caQs",
    "name": "Autoscuola Parrinello",
    "lat": 37.792193399999995,
    "lng": 12.451560299999999
  },
  {
    "id": "ChIJL9dbxYZhGRMRYaCuFmaErH0",
    "name": "Autoscuola Canino Di Canino Paola",
    "lat": 38.0163811,
    "lng": 12.5178602
  },
  {
    "id": "ChIJiyXOil7BGxMREYkimBhqCgk",
    "name": "Autoscuola De Vita Di Vincenzo De Vita",
    "lat": 37.72716,
    "lng": 12.5141916
  },
  {
    "id": "ChIJp2MY-UJhLxMRtKeHuECvK1Q",
    "name": "Autoscuola Guida e Vai",
    "lat": 41.926009199999996,
    "lng": 12.5156536
  },
  {
    "id": "ChIJLWDHP4mKJRMRmn4V_8euO3g",
    "name": "SCUOLA GUIDA",
    "lat": 41.855890099999996,
    "lng": 12.4795313
  },
  {
    "id": "ChIJoyFleabxe0cRk-W8moATi3U",
    "name": "Autoscuola Faro Snc Di Ferraro Ing. Domenico & C.",
    "lat": 45.598861199999995,
    "lng": 12.880094699999999
  },
  {
    "id": "ChIJkT_H0Rl3LBMRcNmawwTu5hg",
    "name": "Autoscuola Tiberina Di Mercati Paolo E C. S.N.C.",
    "lat": 43.5717131,
    "lng": 12.1368533
  },
  {
    "id": "ChIJW4uTi-ncGxMRpm9Rm08r8JY",
    "name": "Autoscuola Easy Drive",
    "lat": 37.8396468,
    "lng": 12.500866199999999
  },
  {
    "id": "ChIJE9joEJSZLhMRkWGNkEP92v0",
    "name": "Autoscuola Vigilanzi - Sede Torgiano",
    "lat": 43.0284556,
    "lng": 12.4398435
  },
  {
    "id": "ChIJt9vg6ulNekcR5cYRsijSC4s",
    "name": "Autoscuola Cividalese",
    "lat": 46.0942313,
    "lng": 13.422096600000001
  },
  {
    "id": "ChIJd7LhH4FhGRMR1V_Nw7-1ntI",
    "name": "Autoscuola Graziano",
    "lat": 38.019342099999996,
    "lng": 12.5268261
  },
  {
    "id": "ChIJtYZnB1zBGxMRcflGUmOKPrM",
    "name": "Autoscuola Abrignani",
    "lat": 37.7219017,
    "lng": 12.5190941
  },
  {
    "id": "ChIJC3_qBjNiGRMRayyAkrdqzy0",
    "name": "Autoscuola Graziano Antonino",
    "lat": 38.0190306,
    "lng": 12.544163399999999
  },
  {
    "id": "ChIJPxMfeJfHGxMReNOa8ZF2ILI",
    "name": "Autoscuola Mokarta Di Ferro Salvatore",
    "lat": 37.6586715,
    "lng": 12.5878809
  },
  {
    "id": "ChIJLcnKZ6vcGxMRq-fQzYRjfv8",
    "name": "AUTOSCUOLA ABRIGNANI",
    "lat": 37.8161237,
    "lng": 12.524705299999999
  },
  {
    "id": "ChIJ58RZsd_eGxMR88UeCCM8YoI",
    "name": "Autoscuola Graziano, Patenti di Guida Auto Moto & Nautica, Sede di Marausa",
    "lat": 37.939416099999995,
    "lng": 12.508664999999999
  },
  {
    "id": "ChIJbcUMpQ3LGxMRCpZcTzEioEc",
    "name": "Autoscuola Marcello Giorgi",
    "lat": 37.6349988,
    "lng": 12.7431972
  },
  {
    "id": "ChIJqzaH1kbLGxMRbFe6W0x7d0I",
    "name": "Autoscuola Selinus",
    "lat": 37.6841556,
    "lng": 12.7886099
  },
  {
    "id": "ChIJtVKoUJ7HGxMRZ7pvI4YM9YI",
    "name": "C.A.M. Consorzo Autoscuole Mazara",
    "lat": 37.659140199999996,
    "lng": 12.5781788
  },
  {
    "id": "ChIJI3JoaEjLGxMRG2Z5BriYPek",
    "name": "Autoscuola 2000",
    "lat": 37.682509599999996,
    "lng": 12.795270299999999
  },
  {
    "id": "ChIJ9UC0XkjLGxMRWDhLKlfMti0",
    "name": "Autoscuola Evola",
    "lat": 37.6829408,
    "lng": 12.7957562
  },
  {
    "id": "ChIJgxPH8EfLGxMRPLU8N1yvNig",
    "name": "Autoscuola Ragona",
    "lat": 37.6812203,
    "lng": 12.7932554
  },
  {
    "id": "ChIJ3yDvm6LCGxMRurBHoRsLlZM",
    "name": "Autoscuola Internazionale",
    "lat": 37.802443,
    "lng": 12.447702200000002
  },
  {
    "id": "ChIJCyCRxEliGRMR66RYdFdDNMk",
    "name": "Autoscuola Quadrifoglio Di Fasulo Baldassare & C. Snc",
    "lat": 38.013445399999995,
    "lng": 12.5535692
  },
  {
    "id": "ChIJ1ftt_p3YGxMRtqw3KoI7YqE",
    "name": "Autoscuola Quadrifoglio Di Fasulo B. & C. S.N.C.",
    "lat": 37.9777592,
    "lng": 12.558598199999999
  },
  {
    "id": "ChIJAbiH_YNhGRMRpsTv8CSV03g",
    "name": "Autoscuola Graziano Reina Di Sergio Graziano e C. Sas",
    "lat": 38.018688399999995,
    "lng": 12.5240806
  },
  {
    "id": "ChIJTVEX1pQ-GhMRfnm4rEt5VXE",
    "name": "Autoscuola Calandra Di Calandra Calogero",
    "lat": 37.6467767,
    "lng": 13.1087192
  },
  {
    "id": "ChIJPRNXRKgVGhMRCBqDbsXow0k",
    "name": "L'AUTOSCUOLA",
    "lat": 37.5764317,
    "lng": 13.220404
  },
  {
    "id": "ChIJdzi60HRsGhMRny1l_4Ck8D0",
    "name": "Costa Rosetta",
    "lat": 37.5034024,
    "lng": 13.269173799999999
  },
  {
    "id": "ChIJCyrFqBM7GhMRuIevLOCBD5o",
    "name": "AUTOSCUOLA GATTOPARDO",
    "lat": 37.691333799999995,
    "lng": 13.0189331
  },
  {
    "id": "ChIJ49FiwjEXGhMR86_-f95vmQQ",
    "name": "Autoscuola Valenza David",
    "lat": 37.701335199999995,
    "lng": 13.2629554
  },
  {
    "id": "ChIJMTHebrxxGhMRuObSWG4vRaI",
    "name": "Autoscuola Europea S N C",
    "lat": 37.442034,
    "lng": 13.389393
  },
  {
    "id": "ChIJJ7mwyCGkEBMR_lr2kYh25LI",
    "name": "Autoscuola La Greca Lucio",
    "lat": 37.6275674,
    "lng": 13.6395536
  },
  {
    "id": "ChIJYyXZ0xcFGhMRX6fg8LJTArI",
    "name": "Autoscuola Vallone Prizzi",
    "lat": 37.719973599999996,
    "lng": 13.4349449
  },
  {
    "id": "ChIJqWth6A-pEBMRiEIg6YpTmzY",
    "name": "Autoscuola Cristoforo",
    "lat": 37.7472487,
    "lng": 13.6007588
  },
  {
    "id": "ChIJjWd61KClEBMRyiu9S5vnLZQ",
    "name": "Autoscuola La Greca Giuseppe",
    "lat": 37.6266271,
    "lng": 13.6423955
  },
  {
    "id": "ChIJiYkxNSCiEBMRtyBMhUqLzqg",
    "name": "Autoscuola Severino Caterina",
    "lat": 37.5417576,
    "lng": 13.643206699999999
  },
  {
    "id": "ChIJ_QTeYyIJGhMRNZ-J-lUG0yA",
    "name": "Autoscuola Vallone S.Stefano Quisquina",
    "lat": 37.6241407,
    "lng": 13.490997799999999
  },
  {
    "id": "ChIJCxbuAQB7GhMR4HaIbRNOhFg",
    "name": "Autoscuole Infurna group srl",
    "lat": 37.335247599999995,
    "lng": 13.422704999999999
  },
  {
    "id": "ChIJOc910Ze8EBMRitJqESBYUos",
    "name": "Autoscuola Mancuso",
    "lat": 37.579431899999996,
    "lng": 13.7528185
  },
  {
    "id": "ChIJa8QM1oGXEBMRnsHcheKEfhs",
    "name": "AUTOSCUOLA , Michelangelo Volpe",
    "lat": 37.469349699999995,
    "lng": 13.732161
  },
  {
    "id": "ChIJT2zPNqilEBMRI4KsKE6tvVI",
    "name": "Autoscuola Traina",
    "lat": 37.6313862,
    "lng": 13.637459499999999
  },
  {
    "id": "ChIJo5LhJRAMGhMRN-YAZoeMasg",
    "name": "AUTOSCUOLA La Greca",
    "lat": 37.616625299999995,
    "lng": 13.4392222
  },
  {
    "id": "ChIJAxyyA8RxGhMREtaMiX_ndAQ",
    "name": "Autoscuole Infurna group srl",
    "lat": 37.4428068,
    "lng": 13.3883387
  },
  {
    "id": "ChIJd503EkyTEBMRPKmKsnVbc6E",
    "name": "Autoscuola R. Turone",
    "lat": 37.3564935,
    "lng": 13.8482585
  },
  {
    "id": "ChIJy4kaWUGSEBMRw89idF2ibD4",
    "name": "Upam Di Greco Aurelio Angelo",
    "lat": 37.3551978,
    "lng": 13.8504978
  },
  {
    "id": "ChIJk_N1D0aSEBMRf5E7iraEfI8",
    "name": "Agenzia Quadrifoglio Ferraro",
    "lat": 37.3604541,
    "lng": 13.850124699999999
  },
  {
    "id": "ChIJq9amW73DEBMRa7y2YIeG1gI",
    "name": "Autoscuola Castrianni Di Castrianni Vincenzo & C. Sas",
    "lat": 37.4939252,
    "lng": 14.0568484
  },
  {
    "id": "ChIJxxnmhkaSEBMRVHR30lYkouA",
    "name": "FRATELLI CARAMANELLO",
    "lat": 37.346263799999996,
    "lng": 13.842678699999999
  },
  {
    "id": "ChIJ8a4q2iXtEBMRE4P2hrhYwOA",
    "name": "Autoscuola Pelonero",
    "lat": 37.35657,
    "lng": 13.927995999999998
  },
  {
    "id": "ChIJa58bGH7CEBMRaN4HM53kAJc",
    "name": "Autoscuola Castrianni Di Castrianni Vincenzo & C. Sas",
    "lat": 37.4765698,
    "lng": 14.0527312
  },
  {
    "id": "ChIJgbkx5I7YEBMRTUTjZhx9Cpw",
    "name": "Autoscuola Virzì Giuseppe",
    "lat": 37.5642565,
    "lng": 14.271169599999999
  },
  {
    "id": "ChIJs2JwXo_YEBMRPMnH_ivPVzA",
    "name": "Autoscuola Cammarata",
    "lat": 37.5640941,
    "lng": 14.273411999999999
  },
  {
    "id": "ChIJg6NqJGLCEBMROU_Md4koe4Q",
    "name": "Autoscuola Limuti S.N.C.",
    "lat": 37.488137,
    "lng": 14.0518839
  },
  {
    "id": "ChIJz4fw3IbYEBMRyFJbQr5O1W4",
    "name": "Autoscuola Gatto",
    "lat": 37.567498199999996,
    "lng": 14.279363400000001
  },
  {
    "id": "ChIJJ72TuO_BEBMRiuKvMwnSwnc",
    "name": "Autoscuola Alpa Di Andaloro G.E Garofalo Vincenzo &C Snc",
    "lat": 37.4920809,
    "lng": 13.994098999999999
  },
  {
    "id": "ChIJ2zeeU1DhEBMR3m2MehusVMg",
    "name": "Autoscuole Muscara' Srl",
    "lat": 37.3792939,
    "lng": 14.2020147
  },
  {
    "id": "ChIJC3HC_dYeERMR-5LhzIZEl3Y",
    "name": "Autoscuole Muscara'",
    "lat": 37.3783852,
    "lng": 14.368950199999997
  },
  {
    "id": "ChIJFdiZ59YeERMRSKSXLVunrQg",
    "name": "Autoscuola Giuliana",
    "lat": 37.388014399999996,
    "lng": 14.371349
  },
  {
    "id": "ChIJc_aLFtceERMR6ioqrPEnkXw",
    "name": "Autoscuola Villari Di Lo Presti Maria Assunta E C. Sas",
    "lat": 37.3885116,
    "lng": 14.3695175
  },
  {
    "id": "ChIJMx0CH98uERMR_-5BA6pD1lE",
    "name": "Autoscuole Agenzie SIDOTI & LA FERRARA",
    "lat": 37.6425146,
    "lng": 14.401733100000001
  },
  {
    "id": "ChIJi3411XsxERMRsYC0NiaK0PE",
    "name": "Autoscuole Agenzie Sidoti e La Ferrara",
    "lat": 37.6574276,
    "lng": 14.524844700000001
  },
  {
    "id": "ChIJ0y6D3dwjERMRfJKWNFvha5s",
    "name": "Autoscuola Lambusta La Sosta",
    "lat": 37.4912306,
    "lng": 14.389418899999999
  },
  {
    "id": "ChIJ3RRhYpNrERMR9WdyYzLPUM8",
    "name": "Autoscuola Scire' Ignazio",
    "lat": 37.3252756,
    "lng": 14.745780000000002
  },
  {
    "id": "ChIJLxiFRAnZEBMRdyfYirgzU6o",
    "name": "Autoscuola Speciale di Speciale Francesco",
    "lat": 37.589409499999995,
    "lng": 14.2708976
  },
  {
    "id": "ChIJ3WZRrIoJERMR8pFnV34kux0",
    "name": "Autoscuola Record Di Marino Salvatore",
    "lat": 37.2419673,
    "lng": 14.514677500000001
  },
  {
    "id": "ChIJ8yFhIUANERMRa6BPgN7M6BA",
    "name": "Scuola Guida Moderna",
    "lat": 37.21248800000001,
    "lng": 14.635195000000001
  },
  {
    "id": "ChIJBaY2cD4aERMR7c2bSJckZxY",
    "name": "AUTOSCUOLA ARANZULLA",
    "lat": 37.3244628,
    "lng": 14.447014399999999
  },
  {
    "id": "ChIJlcMuEeI1ERMRVYZffmHUSjk",
    "name": "Autoscuola Roccella e Virzì srl",
    "lat": 37.651269899999996,
    "lng": 14.6423449
  },
  {
    "id": "ChIJm7VUfpxNERMRe6iOTSMB0F8",
    "name": "Autoscuola Moschitta",
    "lat": 37.6630581,
    "lng": 14.830721599999997
  },
  {
    "id": "ChIJm_vapUhJERMRiJxyeEBzGPk",
    "name": "Autoscuola Roccella",
    "lat": 37.6215818,
    "lng": 14.7408277
  },
  {
    "id": "ChIJsUlebd1rERMRBmHFgyNNkV8",
    "name": "D'Avola Giuseppe",
    "lat": 37.325877,
    "lng": 14.744835000000002
  },
  {
    "id": "ChIJ8SQKK5tqERMR82fWf_PgjHE",
    "name": "Autoscuola Di Sinatra Antonio",
    "lat": 37.385597499999996,
    "lng": 14.693564600000002
  },
  {
    "id": "ChIJDX4Fl0hJERMRfp90JOrweGE",
    "name": "Virzì Autoscuole-Via Umberto, 5",
    "lat": 37.620883899999995,
    "lng": 14.7413654
  },
  {
    "id": "ChIJ-T6x1ycZERMRMsS_lPmgd8E",
    "name": "Autoscuola Villari Di Lo Presti Maria Assunta E C. Sas",
    "lat": 37.4154972,
    "lng": 14.443505400000001
  },
  {
    "id": "ChIJo8GjsZxNERMRFU2n4k05X1Q",
    "name": "Autoscuola Pappalardo s.a.s.",
    "lat": 37.663320999999996,
    "lng": 14.833497999999999
  },
  {
    "id": "ChIJ3emVj1PmEBMRWIv_8y2CEM0",
    "name": "Autoscuola Record 2000 Di Ragusa Santa",
    "lat": 37.4172671,
    "lng": 14.139607
  },
  {
    "id": "ChIJl1LzSmxSERMRgJNeDRS-XAw",
    "name": "Autoscuola Montagna - Schepis",
    "lat": 37.6469644,
    "lng": 14.860462299999998
  },
  {
    "id": "ChIJFa1aHdxrERMRUCS1OSznO0Q",
    "name": "Autoscuola M.Scribano",
    "lat": 37.3286535,
    "lng": 14.7462048
  },
  {
    "id": "ChIJZ1hCQzTaEBMRZi2ilCb97Xw",
    "name": "Autoscuola Di Fidemi Paolo Sas",
    "lat": 37.5868331,
    "lng": 14.1739375
  },
  {
    "id": "ChIJK-ZAzeP8ExMRvVDbo0gk-eA",
    "name": "Autoscuole La Rapida",
    "lat": 37.5373829,
    "lng": 15.082135099999999
  },
  {
    "id": "ChIJcUkj0_H_ExMR1PzOwUmbaHE",
    "name": "Autoscuola corsaro",
    "lat": 37.6046676,
    "lng": 15.124806
  },
  {
    "id": "ChIJ_fBleZX9ExMRse9AxfjLKI0",
    "name": "Autoscuola Al Volante Mascalucia",
    "lat": 37.5744167,
    "lng": 15.055297800000002
  },
  {
    "id": "ChIJG_IRp9H8ExMRxI6htpi7uIY",
    "name": "Autoscuola Sidoti",
    "lat": 37.5422769,
    "lng": 15.0934513
  },
  {
    "id": "ChIJyzBFPDT9ExMRKVLn_QkGDwU",
    "name": "Autoscuole Lizzio Misterbianco",
    "lat": 37.520242499999995,
    "lng": 15.036690700000001
  },
  {
    "id": "ChIJ_YTT7Dv8ExMRCaEC0JJrQuw",
    "name": "Autoscuola Corsaro",
    "lat": 37.5778237,
    "lng": 15.095938799999999
  },
  {
    "id": "ChIJI9h3oRr5ExMRD1mFopCDkCU",
    "name": "AUTOSCUOLA START&STOP ex IL GABBIANO",
    "lat": 37.6154341,
    "lng": 15.1597365
  },
  {
    "id": "ChIJ5VRxXB_9ExMRqG1DmeyP8Jw",
    "name": "Autoscuola al Volante di A. Bellia Mascalucia",
    "lat": 37.5735653,
    "lng": 15.057216500000001
  },
  {
    "id": "ChIJ8y91YtDiExMR1yVfha-3RGE",
    "name": "Autoscuole Lizzio e figlie",
    "lat": 37.503617999999996,
    "lng": 15.070446299999999
  },
  {
    "id": "ChIJRahJTyBYERMRDQMCNhNNong",
    "name": "Autoscuola Giuffrida Di Giuffrida G.",
    "lat": 37.5183676,
    "lng": 15.0071683
  },
  {
    "id": "ChIJfx0jw8v8ExMRs7P2aYDJmYA",
    "name": "Autoscuola speed",
    "lat": 37.505087499999995,
    "lng": 15.0879221
  },
  {
    "id": "ChIJs_qCKkj8ExMR3OTGzoJUuPE",
    "name": "Autoscuola Al Volante di Salvatore Torrisi",
    "lat": 37.572428099999996,
    "lng": 15.088041500000001
  },
  {
    "id": "ChIJoYTBAtT8ExMRtj751-0r36g",
    "name": "Autoscuola CityDriver",
    "lat": 37.5155171,
    "lng": 15.0843143
  },
  {
    "id": "ChIJz_nVzFj8ExMRX8WVk_LjkgQ",
    "name": "Autoscuola Corsaro",
    "lat": 37.5522747,
    "lng": 15.096653499999999
  },
  {
    "id": "ChIJ02F70FRvERMRquIapUt1z8A",
    "name": "Autoscuola Calleri",
    "lat": 37.2903808,
    "lng": 14.841973099999999
  },
  {
    "id": "ChIJjf046DD9ExMRKYjFt1zd5BA",
    "name": "Autoscuola Start Drive di Marcello Pappalardo",
    "lat": 37.560724799999996,
    "lng": 15.062144799999999
  },
  {
    "id": "ChIJlbeIc-ZQERMRu7tXYINXkNw",
    "name": "Autoscuola Pappalardo Sas",
    "lat": 37.5657691,
    "lng": 14.9100495
  },
  {
    "id": "ChIJBTrJJoVNERMRORiUJOrt_7s",
    "name": "Autoscuola Lo Cicero Di Salvatore E Carmelo Snc",
    "lat": 37.659580999999996,
    "lng": 14.834833300000001
  },
  {
    "id": "ChIJkdAsgQ35ExMRgmugvFvNqfU",
    "name": "Evolution Autoscuola",
    "lat": 37.607822899999995,
    "lng": 15.160668699999997
  },
  {
    "id": "ChIJyQju0-H8ExMRRMs1fpgh7Uk",
    "name": "Autoscuola Pappalardo Domenico",
    "lat": 37.544086899999996,
    "lng": 15.0537545
  },
  {
    "id": "ChIJwWbJ6IdWERMR3edHya1Rxbw",
    "name": "Autoscuola Lory Di Serrano Loredana",
    "lat": 37.5970837,
    "lng": 14.9844518
  },
  {
    "id": "ChIJEYl11Zn7ExMReKB_yjtTHuQ",
    "name": "Mannino Stefana E Cacciola Silvana S.N.C.",
    "lat": 37.555623,
    "lng": 15.145615999999999
  },
  {
    "id": "ChIJsSj4FSv5ExMRRkgK5KKpWBw",
    "name": "Drive Scuola Guida Di S. Belfiore e C. Snc",
    "lat": 37.626196199999995,
    "lng": 15.1273218
  },
  {
    "id": "ChIJ-fXt9dtZERMRFFm96bpfplw",
    "name": "Autoscuola Giuffrida",
    "lat": 37.5182691,
    "lng": 14.968391
  },
  {
    "id": "ChIJCRwfgeRQERMRqHSkM3w0nBc",
    "name": "Autoscuola Santangelo",
    "lat": 37.569710799999996,
    "lng": 14.906503100000002
  },
  {
    "id": "ChIJK0cBdgLjExMR5W9zKals9_o",
    "name": "Autoscuola Fragala",
    "lat": 37.5071935,
    "lng": 15.080581299999999
  },
  {
    "id": "ChIJneC0lvlQERMR8CyaW0Z5kXU",
    "name": "Autoscuola Bellia",
    "lat": 37.567723,
    "lng": 14.8966787
  },
  {
    "id": "ChIJ-Uxd5yBYERMRC6fltPH4F8A",
    "name": "Autoscuola s. Lucia",
    "lat": 37.5185627,
    "lng": 15.004644899999999
  },
  {
    "id": "ChIJP_TuzoFRERMR6FlqkQeqbeU",
    "name": "Autoscuola Montagna",
    "lat": 37.6159387,
    "lng": 14.8913835
  },
  {
    "id": "ChIJw7HMu0b5ExMR9ShjL-dwKGM",
    "name": "Autoscuole Lizzio Acireale",
    "lat": 37.6184146,
    "lng": 15.161425099999999
  },
  {
    "id": "ChIJe_uL97j8ExMRM7uwuL5w19g",
    "name": "Autoscuola Scuderi",
    "lat": 37.520877299999995,
    "lng": 15.104686699999998
  },
  {
    "id": "ChIJw3tDi4xWERMRxi0--f3GVAY",
    "name": "Autoscuola S. Lucia Di Giuffrida Demetrio",
    "lat": 37.5891796,
    "lng": 14.978339399999998
  },
  {
    "id": "ChIJYyfQmAT5ExMRilNR83FRDlA",
    "name": "Autoscuola Scaccianoce Di Nicola Ed Anna Messina S.N.C.",
    "lat": 37.6197017,
    "lng": 15.162556700000001
  },
  {
    "id": "ChIJFci3wnoFFBMRimd7_1aDZHA",
    "name": "AUTOSCUOLA IONICA Fiumefreddo",
    "lat": 37.794353099999995,
    "lng": 15.2097451
  },
  {
    "id": "ChIJJwycyNniExMRXgbEWqX2wr0",
    "name": "Autoscuola Pennisi Angelo",
    "lat": 37.5000438,
    "lng": 15.075442899999999
  },
  {
    "id": "ChIJo29XVWQFFBMRt8Lib5H3QQ4",
    "name": "Autoscuola Camarda",
    "lat": 37.7952106,
    "lng": 15.209973100000001
  },
  {
    "id": "ChIJHyEhnmgGFBMR58EAhafjOkQ",
    "name": "Autoscuola Davide",
    "lat": 37.729950599999995,
    "lng": 15.184762399999999
  },
  {
    "id": "ChIJQd_lDI38ExMRWiuL3CZ2eEo",
    "name": "La Patente",
    "lat": 37.5403789,
    "lng": 15.1049189
  },
  {
    "id": "ChIJpyPdX8_8ExMRT7zswjWDSCc",
    "name": "Autoscuola Starter",
    "lat": 37.5193122,
    "lng": 15.0952403
  },
  {
    "id": "ChIJIRh-4UwbFBMR4tRZDmjGZR0",
    "name": "AUTOSCUOLA/AGENZIA \"AL VOLANTE\" di Trefiletti Giuseppe",
    "lat": 37.8375548,
    "lng": 15.1409164
  },
  {
    "id": "ChIJWSjiItjiExMRRSJfOW3sUGY",
    "name": "Autoscuola Garibaldi",
    "lat": 37.5003161,
    "lng": 15.0774877
  },
  {
    "id": "ChIJdZiuAEwbFBMR0HsCIOuCUto",
    "name": "Autoscuola Sorrentino",
    "lat": 37.8438772,
    "lng": 15.135185700000001
  },
  {
    "id": "ChIJS3AJqpZZFBMR60e478BgTaM",
    "name": "Autoscuola Alfredo Romeo",
    "lat": 38.090578,
    "lng": 15.6446756
  },
  {
    "id": "ChIJnSiN14BQFBMR8ZCgH3C57h8",
    "name": "TRIPODI Autoscuole Scuola Nautica Pratiche Auto",
    "lat": 38.10416,
    "lng": 15.644314999999999
  },
  {
    "id": "ChIJDcItctRmQBMRNpPUl2HZdDY",
    "name": "Autoscuola",
    "lat": 39.3110304,
    "lng": 16.8597109
  },
  {
    "id": "ChIJX8PPnub-ExMRmY4NYlSB5Ps",
    "name": "Autoscuola Pole Position Di Barbagallo Salvatore",
    "lat": 37.694274899999996,
    "lng": 15.106157
  },
  {
    "id": "ChIJzfZyhyUQFBMRDmlhcf01teY",
    "name": "The Drive Academy",
    "lat": 37.8338434,
    "lng": 15.245198499999999
  },
  {
    "id": "ChIJl-ChP0EnFRMRjVyWosxy6hI",
    "name": "Autoscuola Pegaso",
    "lat": 38.2343322,
    "lng": 16.2613751
  },
  {
    "id": "ChIJnXWfFfROFBMRSM-hi0h1-Aw",
    "name": "Scuola guida e Nautica Cinqueruote di GianBruno Albano",
    "lat": 38.171303,
    "lng": 15.543054
  },
  {
    "id": "ChIJAalyVINhGRMR43y-PJ7hNZ4",
    "name": "Autoscuola Amato Pietro",
    "lat": 38.0193065,
    "lng": 12.5186955
  },
  {
    "id": "ChIJ4XEdREljGRMRGlV8XzfXus4",
    "name": "Autoscuola Graziano",
    "lat": 38.03735950000001,
    "lng": 12.6130319
  },
  {
    "id": "ChIJd4ZpKnRiGRMRIVUvXwOOgbA",
    "name": "Scuola Guida Amato",
    "lat": 37.9807957,
    "lng": 12.5583931
  },
  {
    "id": "ChIJN5ZVyliBGRMRuzQVwnzdr0Y",
    "name": "Autoscuola L. Rizzuto",
    "lat": 38.0247029,
    "lng": 12.880493399999999
  },
  {
    "id": "ChIJX9cbAVmBGRMRVU6V47qkM8w",
    "name": "Autoscuola Ilenia Di Giorlando Ilenia",
    "lat": 38.0178084,
    "lng": 12.8872577
  },
  {
    "id": "ChIJQSi0HCHoGxMR9t6e-Q9kq5k",
    "name": "Basile Gaetano",
    "lat": 37.7997861,
    "lng": 12.435343900000001
  },
  {
    "id": "ChIJB1cGaUUqGhMRkjZ5Ne1cM3M",
    "name": "Autoscuola Segesta S. N. C. di Mezzapelle Giuseppe C.",
    "lat": 37.914090099999996,
    "lng": 12.8647741
  },
  {
    "id": "ChIJT_EITtHSGxMRVG2tZO8NA3U",
    "name": "Scuola guida Funaro",
    "lat": 37.8210426,
    "lng": 12.7989546
  },
  {
    "id": "ChIJN465jnaPGRMRAggXBSXCNlY",
    "name": "Autoscuola Ilenia Di Giorlando Ilenia",
    "lat": 38.0510988,
    "lng": 13.0062783
  },
  {
    "id": "ChIJdSX0LkmGGRMR6YZDgcwzhV0",
    "name": "Autoscuola Sicilia",
    "lat": 37.9828584,
    "lng": 12.9613067
  },
  {
    "id": "ChIJ4Q9LvDViGRMR4dSGgplFQy0",
    "name": "Autoscuola Costantino di Costantino Marco",
    "lat": 37.9753439,
    "lng": 12.969521100000001
  },
  {
    "id": "ChIJH_ElKHGNGRMRi1qtK-MDg5o",
    "name": "Autoscuola Sicilia di Amelia Giorlando",
    "lat": 38.044404899999996,
    "lng": 13.115057499999999
  },
  {
    "id": "ChIJOyEBlW3vGRMR6vRrz2UHFDk",
    "name": "AutoScuole ALLEGRA di Rosario Allegra",
    "lat": 38.1105103,
    "lng": 13.3398951
  },
  {
    "id": "ChIJhy5AtRXuGRMR5L0ONX5C2wc",
    "name": "Autoscuola Campione",
    "lat": 38.0804749,
    "lng": 13.2866957
  },
  {
    "id": "ChIJoXD1adKHGRMRvm_n51y9N3Q",
    "name": "Scuola Guida Piazza",
    "lat": 37.9804665,
    "lng": 12.9698269
  },
  {
    "id": "ChIJ-TQKJt6TGRMRPwin8JHUZaM",
    "name": "Autoscuola Armanno Srl",
    "lat": 38.1499727,
    "lng": 13.0847354
  },
  {
    "id": "ChIJe8cGLuHtGRMR4GuSs-kqK_E",
    "name": "Autoscuola Mazzola",
    "lat": 38.1580249,
    "lng": 13.1756006
  },
  {
    "id": "ChIJFwDfYo2TGRMR6knasM8smRg",
    "name": "Autoscuola Mazzola Di Mazzola Antonino & C. Sas",
    "lat": 38.1569084,
    "lng": 13.1067796
  },
  {
    "id": "ChIJwXMll7eTGRMRW0QNLHAajWk",
    "name": "Autoscuola Artigliere",
    "lat": 38.1589795,
    "lng": 13.1704335
  },
  {
    "id": "ChIJW9i9WkyMGRMRPZ31v8YmNJk",
    "name": "Gruppo Start di Catalano, Autoscuola e Agenzia Disbrigo Pratiche Auto, Partinico (Palermo)",
    "lat": 38.038608499999995,
    "lng": 13.1126849
  },
  {
    "id": "ChIJ98QfIK-NGRMRfMU6gn5KT7Q",
    "name": "Autoscuola Rita Mineo",
    "lat": 38.0488029,
    "lng": 13.1207934
  },
  {
    "id": "ChIJedhugq2NGRMRnhZl3B7Q0Jk",
    "name": "Autoscuola Bugatti di D'Amico Saverio E C. Sas",
    "lat": 38.044314899999996,
    "lng": 13.116584099999999
  },
  {
    "id": "ChIJ-6uTr1iTGRMRGowZmxqlgQQ",
    "name": "Gruppo Start di Catalano, Autoscuola e Agenzia Disbrigo Pratiche Auto, Montelepre (Palermo)",
    "lat": 38.091001,
    "lng": 13.171504899999999
  },
  {
    "id": "ChIJtRC1TRjtGRMRziUmK7wwVbA",
    "name": "Autoscuola Numero 1",
    "lat": 38.1327916,
    "lng": 13.226485799999999
  },
  {
    "id": "ChIJOVWU1q6NGRMRvMNL1ptb5Ew",
    "name": "La Scuola Guida Mineo G. Di D'Amico & C. S.A.S.",
    "lat": 38.048382499999995,
    "lng": 13.1218494
  },
  {
    "id": "ChIJCamD01TtGRMRm_FWH3p2uVk",
    "name": "Autoscuola al volante",
    "lat": 38.1358585,
    "lng": 13.1858984
  },
  {
    "id": "ChIJ66HNYLKNGRMRTZ4rZlKSGjg",
    "name": "Autoscuola di G. Sicilia",
    "lat": 38.044368999999996,
    "lng": 13.1150019
  },
  {
    "id": "ChIJF-7kKlJQFxMRxla6mIpJo2k",
    "name": "Autoscuola Guercio",
    "lat": 37.9800459,
    "lng": 13.691207499999999
  },
  {
    "id": "ChIJ_RcDnFbiGRMRNTFrtX3aaHc",
    "name": "AUTOSCUOLA APOLLO 13 NUVOLARI",
    "lat": 38.0833894,
    "lng": 13.5016078
  },
  {
    "id": "ChIJ0UmQrIPjGRMRWWXcMeyFCE4",
    "name": "Autoscuola Pomara 2",
    "lat": 38.0879176,
    "lng": 13.4594927
  },
  {
    "id": "ChIJO9snd6nvGRMRlvTiYXNDEzw",
    "name": "Autoscuola Li Greci di Saitta Emanuele - Sede Corso Calatafimi",
    "lat": 38.0984821,
    "lng": 13.3192901
  },
  {
    "id": "ChIJ47gKowDlGRMRrvAX3pHNNtM",
    "name": "Autoscuola Messina",
    "lat": 38.0768402,
    "lng": 13.444230099999999
  },
  {
    "id": "ChIJGWlacpzjGRMRN80N-ggD7bk",
    "name": "Autoscuola Esperia Di Varisco Caterina",
    "lat": 38.0889649,
    "lng": 13.466931899999999
  },
  {
    "id": "ChIJmx_FoT_uGRMRxkoM9cyd5oY",
    "name": "Autoscuola Li Greci di Saitta Emanuele - Sede Monreale",
    "lat": 38.0816776,
    "lng": 13.291013
  },
  {
    "id": "ChIJ06Mm9sv6GRMR0QRFhjwzYP0",
    "name": "Autoscuola Chinnici",
    "lat": 38.0475242,
    "lng": 13.3875814
  },
  {
    "id": "ChIJM6bOmBDmGRMROh7HFfNt63E",
    "name": "Scuola Guida Arenella di Calia Matteo",
    "lat": 38.1508397,
    "lng": 13.370587599999999
  },
  {
    "id": "ChIJ7ThuDkUdGhMROTO4AhRbWno",
    "name": "Autoscuola Valenza Giovanni",
    "lat": 37.8132951,
    "lng": 13.3008618
  },
  {
    "id": "ChIJd4VVBPjiGRMRbxmA6NwBNXE",
    "name": "Autoscuola Esperia Troisi Di Varisco Giuseppe & C. S.N.C.",
    "lat": 38.078155699999996,
    "lng": 13.5022572
  },
  {
    "id": "ChIJA9pxF1BQFxMRlW_rARoeT6U",
    "name": "Autoscuola Himera Vincenzo Mannisi",
    "lat": 37.9855887,
    "lng": 13.694384099999999
  },
  {
    "id": "ChIJ5VVStipTFxMRhA_923VC0Ks",
    "name": "Autoscuola Guercio",
    "lat": 37.9347257,
    "lng": 13.666228700000001
  },
  {
    "id": "ChIJla_1Wts7FxMRsmSlajNXdTw",
    "name": "Agenzia Pi. Ot. & Autoscuola Ottaviano di O. Fatta",
    "lat": 38.033987599999996,
    "lng": 14.0179111
  },
  {
    "id": "ChIJ-437qsQ7FxMR8PpfVmCKjdc",
    "name": "Autoscuola E Studio Consulenza Auto \"Fatta\"",
    "lat": 38.0334303,
    "lng": 14.018941499999999
  },
  {
    "id": "ChIJ3UWocfjiGRMRNURwb6_LhVM",
    "name": "Autoscuola e Agenzia Musotto",
    "lat": 38.0791057,
    "lng": 13.5073169
  },
  {
    "id": "ChIJS7BDCK8yFxMRhuozoi1gsNQ",
    "name": "Autoscuola - Agenzia Nisi Angelo",
    "lat": 37.8106423,
    "lng": 14.091432099999999
  },
  {
    "id": "ChIJoc93llArFxMRKamL3H1UGOE",
    "name": "Autoscuola E Agenzia Alaimo",
    "lat": 37.7981572,
    "lng": 14.200512799999998
  },
  {
    "id": "ChIJ-WTpoq4yFxMRxr3SHfhy1KY",
    "name": "Autoscuola Fazio",
    "lat": 37.7900591,
    "lng": 14.109718899999999
  },
  {
    "id": "ChIJzd0uZ9tNFxMRD3dMUj4sYL0",
    "name": "Autoscuola Traficante",
    "lat": 37.8486155,
    "lng": 13.756965899999999
  },
  {
    "id": "ChIJa6HFEFj7GRMRb0kI-oGiRMw",
    "name": "Autoscuola Messina",
    "lat": 38.033538899999996,
    "lng": 13.450103499999999
  },
  {
    "id": "ChIJJecy2Um1EBMRR38NV0Xnnpc",
    "name": "Autoscuola Muscarella Di Muscarella Tommaso Emanue Snc",
    "lat": 37.819296,
    "lng": 13.891444
  },
  {
    "id": "ChIJjzY18Em1EBMRDpzOf74ATSs",
    "name": "Autoscuola Muscarella",
    "lat": 37.8203077,
    "lng": 13.8920975
  },
  {
    "id": "ChIJMcRnym87FxMRPxlU4bpXtQc",
    "name": "Autoscuola ICA",
    "lat": 38.0357668,
    "lng": 14.022207499999999
  },
  {
    "id": "ChIJD22lbMFQFxMRGyU1Ksmm43g",
    "name": "Autoscuola Mannisi Angelo",
    "lat": 37.995911299999996,
    "lng": 13.6555846
  },
  {
    "id": "ChIJ15hUSg6pEBMRanID4HPDTQU",
    "name": "Autoscuola S.Cristoforo Di Falletta Rosaria",
    "lat": 37.7488989,
    "lng": 13.5999363
  },
  {
    "id": "ChIJrRCNh3ZIFxMRk8Va0S8Nm3s",
    "name": "Autoscuola Bompietro Di Bruno Paolo",
    "lat": 37.9896915,
    "lng": 13.884954899999999
  },
  {
    "id": "ChIJC3HN6OjMEBMRN_a5HufCjHk",
    "name": "Autoscuola - Agenzia Nisi Angelo",
    "lat": 37.783891,
    "lng": 14.040019000000001
  },
  {
    "id": "ChIJ0_NUwau2EBMRjKg-j8DqXgQ",
    "name": "Autoscuola Cristoforo",
    "lat": 37.747031,
    "lng": 13.826389899999999
  },
  {
    "id": "ChIJ14EfW2HiGRMRSpyNbFvtJDk",
    "name": "Autoscuola Apollo 13",
    "lat": 38.0820867,
    "lng": 13.526171500000002
  },
  {
    "id": "ChIJQRnO9cZQFxMRH98_qdeRoqI",
    "name": "AUTOSCUOLA NAVE",
    "lat": 37.9878669,
    "lng": 13.6972329
  },
  {
    "id": "ChIJxcoQQPriGRMRdTswZP0Rso8",
    "name": "Autoscuola Isotta",
    "lat": 38.073038,
    "lng": 13.5074937
  },
  {
    "id": "ChIJV9Bq1m_5GRMRVQm7ZP-kFOw",
    "name": "Autoscuola Valenza Giuseppe Maria",
    "lat": 37.9527358,
    "lng": 13.4166803
  },
  {
    "id": "ChIJ26hIE0T_GRMRzAWdI2g92fc",
    "name": "Autoscuola Valenza GM",
    "lat": 37.907469899999995,
    "lng": 13.4862124
  },
  {
    "id": "ChIJobOB1C-TFhMRvFuswbtjiwM",
    "name": "Autoscuola Trassari",
    "lat": 38.1632365,
    "lng": 14.747429599999998
  },
  {
    "id": "ChIJi4ImI6LqFhMRWgb0slz1A18",
    "name": "CONSORZIO AUTOSCUOLE RIUNITE PROGETTO GUIDA S.C.R.L.",
    "lat": 38.0722403,
    "lng": 14.6371138
  },
  {
    "id": "ChIJ24oXZdyTFhMRfELoFCBfLEg",
    "name": "Autoscuola \"G. Minciullo\"",
    "lat": 38.1608817,
    "lng": 14.743959600000002
  },
  {
    "id": "ChIJIUX8a-zBFhMRvEehfeFgvRg",
    "name": "Autoscuola Pegaso",
    "lat": 38.0564201,
    "lng": 14.5818846
  },
  {
    "id": "ChIJ4VKiS0jLFhMRlFSTkCSt244",
    "name": "Autoscuole Agenzie SIDOTI & LA FERRARA",
    "lat": 37.782447399999995,
    "lng": 14.5948336
  },
  {
    "id": "ChIJT5xpl3OUFhMR-c0Dbx_lFLM",
    "name": "Autoscuola Calanni Billa Marisa",
    "lat": 38.13193630000001,
    "lng": 14.7250444
  },
  {
    "id": "ChIJHQpN6FmUFhMRmByYCoT9hEM",
    "name": "Autoscuola Messina",
    "lat": 38.1596956,
    "lng": 14.746490500000002
  },
  {
    "id": "ChIJ4bjdtr4sERMRC1huAt0jr1Q",
    "name": "Autoscuola Ferro",
    "lat": 37.748519300000005,
    "lng": 14.3976824
  },
  {
    "id": "ChIJzT5I8TPZFhMR9JuANnNDZAM",
    "name": "Autoscuola Patti",
    "lat": 38.0154363,
    "lng": 14.349695400000002
  },
  {
    "id": "ChIJY4ab_BuyFhMR4WE2vyjB5CA",
    "name": "Autoscuola Dream",
    "lat": 37.787549299999995,
    "lng": 14.8282932
  },
  {
    "id": "ChIJYRYNEeu9FhMRsmkZ6GxF10o",
    "name": "Autoscuola Barbagiovanni Gasparo Francesco",
    "lat": 38.0320171,
    "lng": 14.7735846
  },
  {
    "id": "ChIJ7f9vTwrLFhMRdKooFjxusdc",
    "name": "Autoscuola ART DRIVER snc di Platia Valerio e Plumari Antonio",
    "lat": 37.779632899999996,
    "lng": 14.592705800000001
  },
  {
    "id": "ChIJDdvl4gPXFhMRSV_k1xIRmhU",
    "name": "Autoscuola \"PATTI\"",
    "lat": 37.927417299999995,
    "lng": 14.3596755
  },
  {
    "id": "ChIJY8s9xVmUFhMRnTKaMcKlhIY",
    "name": "Autoscuole Barbagiovanni Gasparo Francesco",
    "lat": 38.1104239,
    "lng": 14.708471999999999
  },
  {
    "id": "ChIJSeYA-c4sERMRf7BwLd_o0nM",
    "name": "Consorzio Interprovinciale Autoscuole",
    "lat": 37.7554551,
    "lng": 14.410985599999998
  },
  {
    "id": "ChIJtfTz-B_AFhMRZ0fkcIjZbh0",
    "name": "Autoscuola Ceraolo Snc",
    "lat": 38.0670301,
    "lng": 14.6352581
  },
  {
    "id": "ChIJRfG-7dstERMRpOz0QtuRnCA",
    "name": "Autoscuola Platia",
    "lat": 37.749371,
    "lng": 14.396488000000002
  },
  {
    "id": "ChIJfeyWbkjEEBMRWVFK7zyYcbk",
    "name": "AUTOSCUOLA CASTRIANNI",
    "lat": 37.5911275,
    "lng": 14.032329200000001
  },
  {
    "id": "ChIJPVmI2qIsERMRlVeA3VNa-ZI",
    "name": "Autoscuola Gagliano Antonino",
    "lat": 37.746693799999996,
    "lng": 14.3901484
  },
  {
    "id": "ChIJe_z0Ml29FhMRoKGXSByaJzw",
    "name": "Autoscuola Messina",
    "lat": 38.0325166,
    "lng": 14.824134899999999
  },
  {
    "id": "ChIJ21DXWSfAFhMRUBWtWRp9Wws",
    "name": "Autoscuola Sapienza di Lo Balbo",
    "lat": 38.0674327,
    "lng": 14.628884399999999
  },
  {
    "id": "ChIJwcp4zCPPEBMRcbr5QFYGBks",
    "name": "Autoscuola Castrianni Di Castrianni Vincenzo & C. Sas",
    "lat": 37.678597599999996,
    "lng": 14.0273476
  },
  {
    "id": "ChIJ_ZWUdRqyFhMR1nDopy7gmkk",
    "name": "Autoscuola Etna Sprint",
    "lat": 37.7861384,
    "lng": 14.832244
  },
  {
    "id": "ChIJfbYEKAYvERMR6iLeZdk88fo",
    "name": "Autoscuola Virzi Antonello",
    "lat": 37.6258842,
    "lng": 14.422183299999999
  },
  {
    "id": "ChIJs5srGINNERMRHBrnEVSYXSE",
    "name": "Autoscuola Etnea Sas",
    "lat": 37.664308999999996,
    "lng": 14.835416
  },
  {
    "id": "ChIJEQ2BPVzXFhMReKdYddK0Jlw",
    "name": "Ferro Angelo",
    "lat": 37.9298637,
    "lng": 14.360646000000001
  },
  {
    "id": "ChIJ1_NjHtw3FxMRZmV_NJE0FAc",
    "name": "Autoscuola Cardinale 6",
    "lat": 37.9191167,
    "lng": 13.937422699999999
  },
  {
    "id": "ChIJzYi6wQ2mFhMRRKFDMaGd_II",
    "name": "AUTOSCUOLA \"POLLICINA\"",
    "lat": 37.8773765,
    "lng": 14.9489203
  },
  {
    "id": "ChIJ3U1nRgymFhMRtk7nVtUK-bU",
    "name": "Autoscuola Ketty Quattropani",
    "lat": 37.877992299999995,
    "lng": 14.944740099999999
  },
  {
    "id": "ChIJwZ2-fyoHFBMRw9yIYV27X2o",
    "name": "Scuola Guida Mastro",
    "lat": 37.727938900000005,
    "lng": 15.190893700000002
  },
  {
    "id": "ChIJCcadQEYHFBMRMB6IojQ3ZNE",
    "name": "Autoscuola Ionica Santa Venerina",
    "lat": 37.686949299999995,
    "lng": 15.139060099999998
  },
  {
    "id": "ChIJUTCoWxYHFBMRMoiz5t3tLkM",
    "name": "AUTOSCUOLA SAGITTARIO di Giovanni Mosello",
    "lat": 37.726041099999996,
    "lng": 15.188398900000001
  },
  {
    "id": "ChIJV_8ZTE0lFBMRAKiO6-uVxmo",
    "name": "Autoscuola Cangemi Armando",
    "lat": 38.1453464,
    "lng": 15.219170300000002
  },
  {
    "id": "ChIJp6uufkslFBMR5BspGKt9nxA",
    "name": "Autoscuola Biondo | Agenzia Pratiche Auto | Barcellona PG",
    "lat": 38.141162099999995,
    "lng": 15.216904900000001
  },
  {
    "id": "ChIJD97KWE4lFBMR-u6kYGXI4cc",
    "name": "Autoscuola Arcobaleno Di Giunta Carmelo",
    "lat": 38.1510816,
    "lng": 15.2234928
  },
  {
    "id": "ChIJ1SCu5-JOFBMRpUvB--iTpbk",
    "name": "Autoscuola SB",
    "lat": 38.1581602,
    "lng": 15.5344267
  },
  {
    "id": "ChIJddw_W0-dFhMR8szKJxSrvMM",
    "name": "Autoscuola-Pratiche Auto \"Ingrassia\"",
    "lat": 38.1413966,
    "lng": 14.966114000000001
  },
  {
    "id": "ChIJNV6UJwwVFBMR7Qau3nb2TPc",
    "name": "Scuola Guida Moschella",
    "lat": 37.9451185,
    "lng": 15.3674735
  },
  {
    "id": "ChIJWccYU20VFBMRCldc9RGwkak",
    "name": "Scuola Guida F.lli Puglisi",
    "lat": 37.9503588,
    "lng": 15.372191099999998
  },
  {
    "id": "ChIJ28Js37cRFBMRZ6MK3SEnHO4",
    "name": "Autoscuola Condor",
    "lat": 37.838858099999996,
    "lng": 15.2762037
  },
  {
    "id": "ChIJifbo8nxOFBMRig2oFvDjFJ0",
    "name": "Scuola Guida F.lli Puglisi",
    "lat": 38.126885699999995,
    "lng": 15.519170200000001
  },
  {
    "id": "ChIJCRTCTHdAFBMREyYHkUNMqgA",
    "name": "Autoscuola Bluefox",
    "lat": 37.9957289,
    "lng": 15.412595
  },
  {
    "id": "ChIJFbGau41QFBMRJcD-Mn82Vc4",
    "name": "Autoscuola Iatì",
    "lat": 38.1159313,
    "lng": 15.651085899999998
  },
  {
    "id": "ChIJgUQLAlicFhMRJiO67qQDK8w",
    "name": "Autoscuola L'AIRONE di Tramontana",
    "lat": 38.1471239,
    "lng": 14.9739823
  },
  {
    "id": "ChIJP7bgCVMlFBMR_c79-iEoqvQ",
    "name": "Autoscuola F.lli Citraro di Citraro Carmelina Daniela",
    "lat": 38.150182,
    "lng": 15.216528700000001
  },
  {
    "id": "ChIJDVi0IlycFhMR30Y7_PYTe08",
    "name": "Autoscuola, Scuola Nautica, Agenzia Pratiche Auto \"Al Volante\" Di Musarra Marco",
    "lat": 38.1375853,
    "lng": 14.966677400000002
  },
  {
    "id": "ChIJj3wCuYhQFBMRW4p2Bp132lo",
    "name": "Autoscuola Primaria",
    "lat": 38.1107167,
    "lng": 15.6463159
  },
  {
    "id": "ChIJ-XDLx4VaFBMRQWf3AeVth_0",
    "name": "Autoscuola Borrello Paolo",
    "lat": 38.0900592,
    "lng": 15.6354198
  },
  {
    "id": "ChIJVR-nxXxOFBMR1efw4fvrKok",
    "name": "La Milanese Autoscuola",
    "lat": 38.186033099999996,
    "lng": 15.551676500000001
  },
  {
    "id": "ChIJXxxyUKMlFBMRfDAfqPF5wds",
    "name": "Autoscuola AN.TI.PA di Lombardo Patrizia",
    "lat": 38.138853,
    "lng": 15.161517000000002
  },
  {
    "id": "ChIJ0YrKZxInFBMROCw195wFu4w",
    "name": "AUTOSCUOLA INGRASSIA",
    "lat": 38.1247689,
    "lng": 15.059365399999997
  },
  {
    "id": "ChIJy8JPZg3fFBMRzIsEP31RDBY",
    "name": "Autoscuola 2M",
    "lat": 38.1487659,
    "lng": 16.1794024
  },
  {
    "id": "ChIJiX4W7lX1FBMRr75bTQRnJO8",
    "name": "Scuola guida Tripodi Antonella",
    "lat": 37.9196381,
    "lng": 15.782875500000001
  },
  {
    "id": "ChIJdWb5LIRbFBMRY6H9xy9QLas",
    "name": "Autoscuola Cama",
    "lat": 38.0225648,
    "lng": 15.6495912
  },
  {
    "id": "ChIJk2ncW4ZQFBMRpOXVfb7tCxI",
    "name": "Autoscuola e Nautica Cama",
    "lat": 38.1076185,
    "lng": 15.645168499999999
  },
  {
    "id": "ChIJfZ-MF-5QFBMR87ld8R3PC4c",
    "name": "Autoscuola Scoglio Regina Venus",
    "lat": 38.1280138,
    "lng": 15.654175099999998
  },
  {
    "id": "ChIJyxvPcxxPFBMRUCnqZROEyIo",
    "name": "Autoscuola Elisea",
    "lat": 38.1514641,
    "lng": 15.5316233
  },
  {
    "id": "ChIJuW6Fb9JNFBMRccS3GQo1HhA",
    "name": "Autoscuola Foscarini - Agenzia Pratiche Auto",
    "lat": 38.2050412,
    "lng": 15.551074399999997
  },
  {
    "id": "ChIJOzoNO3BRFBMRIePhMwwR7F0",
    "name": "Autoscuole Tripodi di Saverio Tripodi",
    "lat": 38.169094699999995,
    "lng": 15.652241
  },
  {
    "id": "ChIJ9bvx1jTeFBMRUgQvaHHhfZk",
    "name": "Autoscuola Tripodi Francesco",
    "lat": 38.1494716,
    "lng": 16.1792357
  },
  {
    "id": "ChIJA5luEbhFFBMRoY0xoinsJJg",
    "name": "Autoscuola SB",
    "lat": 38.0992021,
    "lng": 15.504813999999998
  },
  {
    "id": "ChIJfTjcHGBOFBMR5SkPDo3KBfc",
    "name": "Autoscuola \"GUGLIELMO\"",
    "lat": 38.1753541,
    "lng": 15.547629699999998
  },
  {
    "id": "ChIJVynL8WNOFBMRNqv6Tc3cRTE",
    "name": "Autoscuola Fiumara di Massimo Fiumara",
    "lat": 38.1800091,
    "lng": 15.5526253
  },
  {
    "id": "ChIJXT122X5OFBMRh2FuHt_Nivk",
    "name": "Urso Roberto driving school",
    "lat": 38.191699,
    "lng": 15.552350999999998
  },
  {
    "id": "ChIJaVmVOYRbFBMR5liRJk9uoLk",
    "name": "Autoscuola Tommy Iati' S.R.L.",
    "lat": 38.022978099999996,
    "lng": 15.649023999999999
  },
  {
    "id": "ChIJn_HSb89NFBMRCjMiv6iDCww",
    "name": "Autoscuola Bonsignore",
    "lat": 38.206202499999996,
    "lng": 15.5583702
  },
  {
    "id": "ChIJXUtEiKdTFBMReLcfhzR-Tok",
    "name": "Autoscuola Iatì",
    "lat": 38.227677899999996,
    "lng": 15.6379134
  },
  {
    "id": "ChIJP2T5NmNOFBMRITJUj9-q4_U",
    "name": "Autoscuola Ettore Sas Di Bagnato Rosa & C.",
    "lat": 38.1839674,
    "lng": 15.551534
  },
  {
    "id": "ChIJYQ7zf7lNFBMRq3VqJnN5vzw",
    "name": "Autoscuola/ Agenzia Urso",
    "lat": 38.2189877,
    "lng": 15.5621063
  },
  {
    "id": "ChIJhwkzA35OFBMRRP9j9Cqly0k",
    "name": "Autoscuola \"GUGLIELMO\"",
    "lat": 38.1905833,
    "lng": 15.547747499999998
  },
  {
    "id": "ChIJg7qPVXnfFBMRSvg3SvtKTpc",
    "name": "Autoscuola nuvolari",
    "lat": 38.180408199999995,
    "lng": 16.2109621
  },
  {
    "id": "ChIJkb-w9nffFBMRY1hEsGe2sgo",
    "name": "Autoscuola Pezzano S.A.S.",
    "lat": 38.176022,
    "lng": 16.206069499999998
  },
  {
    "id": "ChIJLYgHErxNFBMR7qQ8QzQ6fFY",
    "name": "Autoscuole CU.BO.",
    "lat": 38.2589233,
    "lng": 15.6079256
  },
  {
    "id": "ChIJXRfFs-c1FBMRldZJP-qdfBQ",
    "name": "Autoscuola Franco",
    "lat": 38.2255119,
    "lng": 15.385965799999997
  },
  {
    "id": "ChIJi5HsSMwBFRMRXfztgtzv95Y",
    "name": "Autoscuola dello Stretto",
    "lat": 38.2867957,
    "lng": 15.8033224
  },
  {
    "id": "ChIJWQe92IdOFBMRK_LHd9YX20M",
    "name": "Autoscuola Bonsignore",
    "lat": 38.1854161,
    "lng": 15.545651300000001
  },
  {
    "id": "ChIJ461TpWbnFBMRFnFsP0H0lEQ",
    "name": "Autoscuola Francesco Tripodi",
    "lat": 38.0868545,
    "lng": 16.1514444
  },
  {
    "id": "ChIJ-zj9sFNSFBMR-B2-CY1Q3IU",
    "name": "Autoscuola Bagnato",
    "lat": 38.217039299999996,
    "lng": 15.637339100000002
  },
  {
    "id": "ChIJ029K5TQkFRMR2LFdAbR6G5Q",
    "name": "Autoscuola / Scuola Nautica Luigi Guttà",
    "lat": 38.2736434,
    "lng": 16.296487799999998
  },
  {
    "id": "ChIJR7tSecs2FBMRU1Y4WGgOokc",
    "name": "Autoscuola Delta Individuale",
    "lat": 38.2012426,
    "lng": 15.318658099999999
  },
  {
    "id": "ChIJA-wb3ANTFBMRcOAe8PA9n18",
    "name": "Autoscuola diego iacono",
    "lat": 38.2585566,
    "lng": 15.607485
  },
  {
    "id": "ChIJN1MQtd41FBMRZ3fMv9lHOIg",
    "name": "Autoscuola Di Mauro",
    "lat": 38.2220635,
    "lng": 15.3776297
  },
  {
    "id": "ChIJlxaSfhknFRMRVNow63VwFiA",
    "name": "Autoscuola Futura",
    "lat": 38.2371226,
    "lng": 16.2627624
  },
  {
    "id": "ChIJk_oQE4U2FBMRqh2GzH6WCNU",
    "name": "Tecnica Della Guida",
    "lat": 38.2128602,
    "lng": 15.3502041
  },
  {
    "id": "ChIJFc1qCS4kFRMREnei2ajkOAc",
    "name": "Autoscuola Eredi Tripodi Di Gutta' Rosa Maria",
    "lat": 38.265622199999996,
    "lng": 16.2938556
  },
  {
    "id": "ChIJgXmeAtgxFRMRpXb4XE7__ZI",
    "name": "Autoscuola Dakar di RDI Raschellà Ilario",
    "lat": 38.322780699999996,
    "lng": 16.4052477
  },
  {
    "id": "ChIJWYF0JVYPFRMRozurqzgP0eU",
    "name": "Autoscuola Pisano",
    "lat": 38.4284087,
    "lng": 15.8994837
  },
  {
    "id": "ChIJVaKbByklFRMRoiD_0ZL7EOA",
    "name": "Autoscuole Ritorto S.a.s.",
    "lat": 38.3307152,
    "lng": 16.3021784
  },
  {
    "id": "ChIJE_ojAyguFRMRgER-ow62xV4",
    "name": "Autoscuola Boccucci",
    "lat": 38.322575799999996,
    "lng": 16.4045888
  },
  {
    "id": "ChIJI3yLsl8aFRMRad4ZRa2ioso",
    "name": "Autoscuola Infantino Martino & C S.a.s",
    "lat": 38.3508716,
    "lng": 16.0151511
  },
  {
    "id": "ChIJRfit3yYXFRMRVIe_UUKtLFg",
    "name": "Autoscuola Italia - diVincenzo Falleti C. S. A. S.",
    "lat": 38.407070000000004,
    "lng": 16.08036
  },
  {
    "id": "ChIJbfKJ7DIkFRMRC7TXO9pt4I4",
    "name": "Autoscuola Tripodi Salvatore Junior",
    "lat": 38.2676377,
    "lng": 16.2973858
  },
  {
    "id": "ChIJK8qhee4ZFRMRNDv0XqsA5N4",
    "name": "Autoscuola Tripodi Gaetana Di Bruzzi Maria Rita",
    "lat": 38.3539544,
    "lng": 16.079667399999998
  },
  {
    "id": "ChIJhZSzkCIPFRMRPFd4Yf3vr7s",
    "name": "Autoscuola F.lli Baglalà di Franco Bagalà & C.sas",
    "lat": 38.4264869,
    "lng": 15.898509899999999
  },
  {
    "id": "ChIJvbk38pYBFRMRAGUDNEjJVvA",
    "name": "SPERANZA AUTOSCUOLA",
    "lat": 38.262762099999996,
    "lng": 15.856039599999999
  },
  {
    "id": "ChIJy62q9F8GFRMREl54gVF0p6M",
    "name": "Autoscuola Pisano Di Pisano Domenico",
    "lat": 38.363060999999995,
    "lng": 15.854662800000002
  },
  {
    "id": "ChIJt1lgVhPlPxMRv8gOjWVGuNs",
    "name": "AUTOSCUOLA",
    "lat": 38.968251699999996,
    "lng": 16.3170405
  },
  {
    "id": "ChIJIbZISXASFRMR1dN0y0IQIvo",
    "name": "AUTOSCUOLA MARCELLA",
    "lat": 38.4865622,
    "lng": 15.975904900000002
  },
  {
    "id": "ChIJ4aDYZD8PFRMRLBA2ZNv-fMw",
    "name": "Autoscuola Albanese Paolo Antonio-Gioia Tauro",
    "lat": 38.4264297,
    "lng": 15.904570399999999
  },